$GPGGA,092915.000,4628.1482,N,01119.9437,E,1,10,0.83,242.7,M,47.6,M,,*60

$GPGSA,A,3,09,03,07,06,17,19,23,22,31,01,,,1.13,0.83,0.77*0D

$GPGSV,4,1,13,23,86,068,35,09,61,236,27,03,50,092,35,06,45,303,39*73

$GPGSV,4,2,13,36,33,153,,22,30,102,26,19,26,261,30,17,18,236,34*7E

$GPGSV,4,3,13,01,15,156,23,07,12,180,18,31,12,035,19,02,10,320,*73

$GPGSV,4,4,13,26,03,073,*48

$GPRMC,092915.000,A,4628.1482,N,01119.9437,E,0.19,216.00,231218,,,A*68

$GPVTG,216.00,T,,M,0.19,N,0.34,K,A*37

$GPGGA,092916.000,4628.1482,N,01119.9437,E,1,10,0.83,242.7,M,47.6,M,,*63

$GPGSA,A,3,09,03,07,06,17,19,23,22,31,01,,,1.13,0.83,0.77*0D

$GPGSV,4,1,13,23,86,068,35,09,61,236,27,03,50,092,35,06,45,303,39*73

$GPGSV,4,2,13,36,33,153,,22,30,102,26,19,26,261,30,17,18,236,34*7E

$GPGSV,4,3,13,01,15,156,23,07,12,180,18,31,12,035,20,02,10,320,*79

$GPGSV,4,4,13,26,03,073,*48

$GPRMC,092916.000,A,4628.1482,N,01119.9437,E,0.24,216.00,231218,,,A*65

$GPVTG,216.00,T,,M,0.24,N,0.44,K,A*3E

$GPGGA,092917.000,4628.1481,N,01119.9437,E,1,10,0.83,242.7,M,47.6,M,,*61

$GPGSA,A,3,09,03,07,06,17,19,23,22,31,01,,,1.13,0.83,0.77*0D

$GPGSV,4,1,13,23,86,068,35,09,61,236,26,03,50,092,35,06,45,303,39*72

$GPGSV,4,2,13,36,33,153,,22,30,102,26,19,26,261,30,17,17,236,34*71

$GPGSV,4,3,13,01,15,156,23,07,12,180,18,31,12,035,20,02,10,320,*79

$GPGSV,4,4,13,26,03,073,*48

$GPRMC,092917.000,A,4628.1481,N,01119.9437,E,0.19,216.00,231218,,,A*69

$GPVTG,216.00,T,,M,0.19,N,0.34,K,A*37

$GPGGA,092918.000,4628.1480,N,01119.9436,E,1,10,0.83,242.7,M,47.6,M,,*6E

$GPGSA,A,3,09,03,07,06,17,19,23,22,31,01,,,1.13,0.83,0.77*0D

$GPGSV,4,1,13,23,86,068,35,09,61,236,25,03,50,092,35,06,45,303,39*71

$GPGSV,4,2,13,36,33,153,,22,30,102,25,19,26,261,30,17,17,236,34*72

$GPGSV,4,3,13,01,15,156,23,07,12,180,18,31,12,035,20,02,10,320,*79

$GPGSV,4,4,13,26,03,073,*48

$GPRMC,092918.000,A,4628.1480,N,01119.9436,E,0.30,216.00,231218,,,A*6D

$GPVTG,216.00,T,,M,0.30,N,0.56,K,A*38

$GPGGA,092919.000,4628.1479,N,01119.9436,E,1,10,0.83,242.7,M,47.6,M,,*69

$GPGSA,A,3,09,03,07,06,17,19,23,22,31,01,,,1.13,0.83,0.77*0D

$GPGSV,4,1,13,23,86,068,35,09,61,236,24,03,50,092,35,06,45,303,39*70

$GPGSV,4,2,13,36,33,153,,22,30,102,24,19,25,260,30,17,17,236,34*71

$GPGSV,4,3,13,01,15,156,23,07,12,180,18,31,12,035,20,02,10,320,*79

$GPGSV,4,4,13,26,03,073,*48

$GPRMC,092919.000,A,4628.1479,N,01119.9436,E,0.35,216.00,231218,,,A*6F

$GPVTG,216.00,T,,M,0.35,N,0.65,K,A*3D

$PMTK001,-1,0*1F

$GPGGA,092920.000,4628.1478,N,01119.9435,E,1,10,0.83,242.7,M,47.6,M,,*61

$GPGSA,A,3,09,03,07,06,17,19,23,22,31,01,,,1.13,0.83,0.77*0D

$GPGSV,4,1,13,23,86,068,35,09,61,236,23,03,50,092,35,06,45,303,39*77

$GPGSV,4,2,13,36,33,153,,22,30,102,24,19,25,260,30,17,17,236,34*71

$GPGSV,4,3,13,01,15,156,23,07,12,180,18,31,12,035,21,02,10,320,*78

$GPGSV,4,4,13,26,03,073,*48

$GPRMC,092920.000,A,4628.1478,N,01119.9435,E,0.15,216.00,231218,,,A*65

$GPVTG,216.00,T,,M,0.15,N,0.27,K,A*39

$GPGGA,092921.000,4628.1478,N,01119.9436,E,1,9,0.84,242.7,M,47.6,M,,*5C

$GPGSA,A,3,03,07,06,17,19,23,22,31,01,,,,1.16,0.84,0.80*0E

$GPGSV,4,1,13,23,86,068,35,09,61,236,22,03,50,092,35,06,45,303,39*76

$GPGSV,4,2,13,36,33,153,,22,30,102,25,19,25,260,30,17,17,236,34*70

$GPGSV,4,3,13,01,15,156,23,07,12,180,18,31,12,035,21,02,10,320,*78

$GPGSV,4,4,13,26,03,073,*48

$GPRMC,092921.000,A,4628.1478,N,01119.9436,E,0.20,216.00,231218,,,A*61

$GPVTG,216.00,T,,M,0.20,N,0.38,K,A*31

$GPGGA,092922.000,4628.1477,N,01119.9435,E,1,9,0.84,242.7,M,47.6,M,,*53

$GPGSA,A,3,03,07,06,17,19,23,22,31,01,,,,1.16,0.84,0.80*0E

$GPGSV,4,1,13,23,86,068,35,09,61,236,21,03,50,092,35,06,45,303,39*75

$GPGSV,4,2,13,36,33,153,28,22,30,103,25,19,25,260,30,17,17,236,34*7B

$GPGSV,4,3,13,01,15,156,24,07,12,180,18,31,12,035,21,02,10,320,*7F

$GPGSV,4,4,13,26,03,073,*48

$GPRMC,092922.000,A,4628.1477,N,01119.9435,E,0.14,216.00,231218,,,A*69

$GPVTG,216.00,T,,M,0.14,N,0.27,K,A*38

$PMTK001,-1,0*1F

$GPGGA,092923.000,4628.1476,N,01119.9435,E,1,9,0.84,242.7,M,47.6,M,,*53

$GPGSA,A,3,03,07,06,17,19,23,22,31,01,,,,1.16,0.84,0.80*0E

$GPGSV,4,1,13,23,85,067,35,09,61,236,21,03,50,092,35,06,45,303,39*79

$GPG
SV,4,2,13,36,33,153,28,22,30,103,24,19,25,260,30,17,17,236,34*7A
$GPGSV,4,3,13,01,15,156,25,07,12,180,18,31,12,035,22,02,10,320,*7D
$GPGSV,4,4,13,26,03,073,*48
$GPRMC,092923.000,A,4628.1476,N,01119.9435,E,0.30,216.00,231218,,,A*6F
$GPVTG,216.00,T,,M,0.30,N,0.56,K,A*38
$GPGGA,092924.000,4628.1476,N,01119.9435,E,1,9,0.84,242.8,M,47.6,M,,*5B
$GPGSA,A,3,03,07,06,17,19,23,22,31,01,,,,1.16,0.84,0.80*0E
$GPGSV,4,1,13,23,85,067,35,09,61,236,20,03,50,092,35,06,45,303,39*78
$GPGSV,4,2,13,36,33,153,27,22,30,103,24,19,25,260,30,17,17,236,34*75
$GPGSV,4,3,13,01,15,156,25,07,12,180,17,31,12,035,22,02,10,320,*72
$GPGSV,4,4,13,26,03,073,*48
$GPRMC,092924.000,A,4628.1476,N,01119.9435,E,0.32,216.00,231218,,,A*6A
$GPVTG,216.00,T,,M,0.32,N,0.60,K,A*3F
$GPGGA,092925.000,4628.1475,N,01119.9434,E,1,9,0.84,242.8,M,47.6,M,,*58
$GPGSA,A,3,03,07,06,17,19,23,22,31,01,,,,1.16,0.84,0.80*0E
$GPGSV,4,1,13,23,85,067,35,09,61,236,19,03,50,092,35,06,45,303,39*72
$GPGSV,4,2,13,36,33,153,28,22,30,103,23,19,25,260,30,17,17,236,34*7D
$GPGSV,4,3,13,01,15,156,25,07,12,180,17,31,12,035,22,02,10,320,*72
$GPGSV,4,4,13,26,03,073,*48
$GPRMC,092925.000,A,4628.1475,N,01119.9434,E,0.45,216.00,231218,,,A*69
$GPVTG,216.00,T,,M,0.45,N,0.82,K,A*33
$GPGGA,092926.000,4628.1473,N,01119.9433,E,1,9,0.84,242.8,M,47.6,M,,*5A
$GPGSA,A,3,03,07,06,17,19,23,22,31,01,,,,1.16,0.84,0.80*0E
$GPGSV,4,1,13,23,85,067,35,09,61,236,18,03,50,092,35,06,45,303,39*73
$GPGSV,4,2,13,36,33,153,28,22,30,103,23,19,25,260,30,17,17,236,33*7A
$GPGSV,4,3,13,01,15,156,26,07,12,180,17,31,12,035,23,02,10,320,*70
$GPGSV,4,4,13,26,03,072,*49
$GPRMC,092926.000,A,4628.1473,N,01119.9433,E,0.45,216.00,231218,,,A*6B
$GPVTG,216.00,T,,M,0.45,N,0.83,K,A*32
$PMTK001,-1,0*1F
$GPGGA,092927.000,4628.1472,N,01119.9433,E,1,9,0.84,242.8,M,47.6,M,,*5A
$GPGSA,A,3,03,07,06,17,19,23,22,31,01,,,,1.16,0.84,0.80*0E
$GPGSV,4,1,13,23,85,067,35,09,61,236,18,03,50,092,35,06,45,303,39*73
$GPGSV,4,2,13,36,33,153,28,22,30,103,23,19,25,260,30,17,17,236,33*7A
$GPGSV,4,3,13,01,15,156,26,07,12,180,17,31,12,035,23,02,10,320,*70
$GPGSV,4,4,13,26,03,072,*49
$GPRMC,092927.000,A,4628.1472,N,01119.9433,E,0.27,216.00,231218,,,A*6F
$GPVTG,216.00,T,,M,0.27,N,0.50,K,A*38
$GPGGA,092928.000,4628.1471,N,01119.9433,E,1,9,0.84,242.8,M,47.6,M,,*56
$GPGSA,A,3,03,07,06,17,19,23,22,31,01,,,,1.16,0.84,0.80*0E
$GPGSV,4,1,13,23,85,067,35,09,61,236,18,03,50,092,35,06,45,303,39*73
$GPGSV,4,2,13,36,33,153,,22,30,103,23,19,25,260,31,17,17,236,33*71
$GPGSV,4,3,13,01,15,156,26,07,12,180,17,31,12,035,23,02,10,320,*70
$GPGSV,4,4,13,26,03,072,*49
$GPRMC,092928.000,A,4628.1471,N,01119.9433,E,0.39,216.00,231218,,,A*6C
$GPVTG,216.00,T,,M,0.39,N,0.71,K,A*34
$GPGGA,092929.000,4628.1470,N,01119.9433,E,1,9,0.84,242.8,M,47.6,M,,*56
$GPGSA,A,3,03,07,06,17,19,23,22,31,01,,,,1.16,0.84,0.80*0E
$GPGSV,4,1,13,23,85,067,35,09,61,236,17,03,50,092,35,06,45,303,39*7C
$GPGSV,4,2,13,36,33,153,27,22,30,103,23,19,25,260,31,17,17,236,33*74
$GPGSV,4,3,13,01,15,156,26,07,12,180,17,31,12,035,23,02,10,320,*70
$GPGSV,4,4,13,26,03,072,*49
$GPRMC,092929.000,A,4628.1470,N,01119.9433,E,0.24,216.00,231218,,,A*60
$GPVTG,216.00,T,,M,0.24,N,0.45,K,A*3F
$GPGGA,092930.000,4628.1469,N,01119.9432,E,1,9,0.84,242.8,M,47.6,M,,*57
$GPGSA,A,3,03,07,06,17,19,23,22,31,01,,,,1.16,0.84,0.80*0E
$GPGSV,4,1,13,23,85,067,35,09,61,236,17,03,50,092,35,06,45,303,39*7C
$GPGSV,4,2,13,36,33,153,28,22,30,103,23,19,25,260,31,17,17,236,33*7B
$GPGSV,4,3,13,01,15,156,26,07,12,180,17,31,12,035,24,02,10,320,*77
$GPGSV,4,4,13,26,03,072,*49
$GPRMC,092930.000,A,4628.1469,N,01119.9432,E,0.18,216.00,231218,,,A*6E
$G
PVTG,216.00,T,,M,0.18,N,0.33,K,A*31

$GPGGA,093149.000,4628.1513,N,01119.9337,E,1,8,0.96,248.0,M,47.6,M,,*5E
$GPGSA,A,3,09,03,07,17,19,23,31,01,,,,,1.23,0.96,0.76*0D
$GPGSV,4,1,13,23,84,063,26,09,62,237,35,03,49,093,30,06,46,302,*7D
$GPGSV,4,2,13,22,29,103,,19,25,260,25,17,17,235,36,01,14,156,23*7E
$GPGSV,4,3,13,07,13,179,25,02,11,320,,31,11,035,23,26,04,072,*
72
$GPGSV,4,4,13,34,,,*7C
$GPRMC,093149.000,A,4628.1513,N,01119.9337,E,0.03,337.75,231218,,,A*6D
$GPVTG,337.75,T,,M,0.03,N,0.06,K,A*3D

$GPGGA,093150.000,4628.1513,N,01119.9337,E,1,8,0.96,248.0,M,47.6,M,,*56
$GPGSA,A,3,09,03,07,17,19,23,31,01,,,,,1.23,0.96,0.76*0D
$GPGSV,4,1,13,23,84,063,26,09,62,237,35,03,49,093,30,06,46,302,*7D
$GPGSV,4,2,13,22,29,103,,19,25,260,24,17,17,235,36,01,14,156,23*7F
$GPGSV,4,3,13,07,13,179,24,02,11,320,,31,11,035,23,26,04,072,*
73
$GPGSV,4,4,13,34,,,*7C
$GPRMC,093150.000,A,4628.1513,N,01119.9337,E,0.14,337.75,231218,,,A*63
$GPVTG,337.75,T,,M,0.14,N,0.25,K,A*3A

$GPGGA,093151.000,4628.1513,N,01119.9337,E,1,8,0.96,248.1,M,47.6,M,,*56
$GPGSA,A,3,09,03,07,17,19,23,31,01,,,,,1.23,0.96,0.76*0D
$GPGSV,4,1,13,23,84,063,26,09,62,237,35,03,49,093,30,06,46,302,*7D
$GPGSV,4,2,13,22,29,103,,19,25,260,24,17,17,235,36,01,14,156,23*7F
$GPGSV,4,3,13,07,13,179,24,02,11,320,,31,11,035,23,26,04,072,*
73
$GPGSV,4,4,13,38,,,*70
$GPRMC,093151.000,A,4628.1513,N,01119.9337,E,0.06,337.75,231218,,,A*61
$GPVTG,337.75,T,,M,0.06,N,0.11,K,A*3E

$GPGGA,09
3152.000,4628.1513,N,01119.9337,E,1,8,0.96,248.2,M,47.6,M,,*56
$GPGSA,A,3,09,03,07,17,19,23,31,01,,,,,1.23,0.96,0.76*0D
$GPGSV,4,1,13,23,84,063,26,09,62,237,35,03,49,093,30,06,46,302,*7D
$GPGSV,4,2,13,22,29,103,,19,25,260,24,17,17,235,36,01,14,156,23*7F
$GPGSV,4,3,13,07,13,179,24,02,11,320,,31,11,035,23,26,04,072,*73
$GPGS
V,4,4,13,38,,,*70
$GPRMC,093152.000,A,4628.1513,N,01119.9337,E,0.04,337.75,231218,,,A*60
$GPVTG,337.75,T,,M,0.04,N,0.07,K,A*3B

$GPGGA,093153.000,4628.1512,N,01119.9337,E,1,8,0.96,248.2,M,47.6,M,,*56
$GPGSA,A,3,09,03,07,17,19,23,31,01,,,,,1.23,0.96,0.76*0D
$GPGSV,4,1,13,23,84,063,26,09,62,237,35,03,49,093,30,06,46,302,*7D
$GPGSV,4,2,13,22,29,103,,19,25,260,24,17,17,235,36,01,14,156,23*7F
$GPGSV,4,3,13,07,13,179,24,02,11,320,,31,11,035,23,26,04,072,*
73
$GPGSV,4,4,13,40,,,*7F
$GPRMC,093153.000,A,4628.1512,N,01119.9337,E,0.19,337.75,231218,,,A*6C
$GPVTG,337.75,T,,M,0.19,N,0.35,K,A*36

$GPGGA,093154.000,4628.1512,N,01119.9337,E,1,8,0.96,248.3,M,47.6,M,,*50
$GPGSA,A,3,09,03,07,17,19,23,31,01,,,,,1.23,0.96,0.76*0D
$GPGSV,4,1,13,23,84,063,26,09,62,237,35,03,49,093,30,06,46,302,*7D
$GPGSV,4,2,13,22,29,103,,19,25,260,24,17,17,235,36,01,14,156,23*7F
$GPGSV,4,3,13,07,13,179,23,02,11,320,,31,11,035,23,26,04,072,*
74
$GPGSV,4,4,13,40,,,*7F
$GPRMC,093154.000,A,4628.1512,N,01119.9337,E,0.41,337.75,231218,,,A*66
$GPVTG,337.75,T,,M,0.41,N,0.75,K,A*3F

$GPGGA,093155.000,4628.1511,N,01119.9337,E,1,8,0.96,248
.4,M,47.6,M,,*55
$GPGSA,A,3,09,03,07,17,19,23,31,01,,,,,1.23,0.96,0.76*0D
$GPGSV,4,1,13,23,84,063,26,09,62,237,36,03,49,093,30,06,46,302,*7E
$GPGSV,4,2,13,22,29,103,,19,25,260,24,17,17,235,36,01,14,156,23*7F
$GPGSV,4,3,13,07,13,179,23,02,11,320,,31,11,035,23,26,04,072,*74
$GPGSV,4,4,13,41,,,*7E
$GPRMC,093155.000,A,4628.15
11,N,01119.9337,E,0.22,337.75,231218,,,A*61
$GPVTG,337.75,T,,M,0.22,N,0.41,K,A*3D

$GPGGA,093156.000,4628.1510,N,01119.9337,E,1,8,0.96,248.4,M,47.6,M,,*57
$GPGSA,A,3,09,03,07,17,19,23,31,01,,,,,1.23,0.96,0.76*0D
$GPGSV,4,1,13,23,84,063,26,09,62,237,36,03,49,093,29,06,46,302,*76
$GPGSV,4,2,13,22,29,103,,19,25,260,24,17,17,235,36,01,14,156,23*7F
$GPGSV,4,3,13,07,13,179,23,02,11,320,,31,11,035,23,26,04,072,*
74
$GPGSV,4,4,13,41,,,*7E
$GPRMC,093156.000,A,4628.1510,N,01119.9337,E,0.27,337.75,231218,,,A*66
$GPVTG,337.75,T,,M,0.27,N,0.49,K,A*30

$GPGGA,093157.000,4628.1510,N,01119.9336,E,1,8,0.96,248.5,M,47.6,M,,*56
$GPGSA,A,3,09,03,07,17,19,23,31,01,,,,,1.23,0.96,0.76*0D
$GPGSV,4,1,13,23,84,063,26,09,62,237,36,03,49,093,29,06,46,302,*76
$GPGSV,4,2,13,22,29,103,,19,25,260,24,17,16,235,35,01,14,156,24*7A
$GPGSV,4,3,13,07,13,179,23,02,11,320,,31,11,035,23,26,04,072,*
74
$GPGSV,4,4,13,43,,,*7C
$GPRMC,093157.000,A,4628.1510,N,01119.9336,E,0.09,337.75,231218,,,A*6A
$GPVTG,337.75,T,,M,0.09,N,0.16,K,A*36

$GPGGA,093158.000,4628.1510,N,01119.9336,E,1,8,0.96,248.5,M,47.6,M,,*59
$GPGSA,A,3,09,03,07,17,19,23
,31,01,,,,,1.23,0.96,0.76*0D
$GPGSV,4,1,13,23,84,063,25,09,62,237,36,03,49,093,29,06,46,302,*75
$GPGSV,4,2,13,22,29,103,,19,25,260,24,17,16,235,35,01,14,156,24*7A
$GPGSV,4,3,13,07,13,179,22,02,11,320,,31,11,035,23,26,04,072,*75
$GPGSV,4,4,13,43,,,*7C
$GPRMC,093158.000,A,4628.1510,N,01119.9336,E,0.10,337.75,231218,,,A*6D
$
GPVTG,337.75,T,,M,0.10,N,0.18,K,A*30

$GPGGA,093159.000,4628.1510,N,01119.9336,E,1,8,0.96,248.6,M,47.6,M,,*5B
$GPGSA,A,3,09,03,07,17,19,23,31,01,,,,,1.23,0.96,0.76*0D
$GPGSV,4,1,13,23,84,063,25,09,62,237,36,03,49,093,29,06,46,302,*75
$GPGSV,4,2,13,22,29,103,,19,25,259,24,17,16,235,35,01,14,156,24*70
$GPGSV,4,3,13,07,13,179,22,02,11,320,,31,11,035,23,26,04,072,*
75
$GPGSV,4,4,13,45,,,*7A
$GPRMC,093159.000,A,4628.1510,N,01119.9336,E,0.12,337.75,231218,,,A*6E
$GPVTG,337.75,T,,M,0.12,N,0.22,K,A*3B

$GPGGA,093200.000,4628.1510,N,01119.9336,E,1,8,0.96,248.6,M,47.6,M,,*54
$GPGSA,A,3,09,03,07,17,19,23,31,01,,,,,1.23,0.96,0.76*0D
$GPGSV,4,1,13,23,84,063,25,09,62,237,36,03,49,093,29,06,46,302,*75
$GPGSV,4,2,13,22,29,103,,19,25,259,24,17,16,235,35,01,14,156,24*70
$GPGSV,4,3,13,07,13,179,22,02,11,320,,31,11,035,23,26,04,072,*
75
$GPGSV,4,4,13,45,,,*7A
$GPRMC,093200.000,A,4628.1510,N,01119.9336,E,0.30,337.75,231218,,,A*61
$GPVTG,337.75,T,,M,0.30,N,0.56,K,A*38

$GPGGA,093201.000,4628.1510,N,01119.9335,E,1,8,0.96,248.7,M,47.6,M,,*57
$GPGSA,A,3,09,03,07,17,19,23,31,01,,,,,1.23,0.96,0.76*0D
$GPGSV,4,1,13,23
,84,063,25,09,62,237,36,03,49,093,29,06,46,302,*75
$GPGSV,4,2,13,22,29,103,,19,25,259,24,17,16,235,35,01,14,156,24*70
$GPGSV,4,3,13,07,13,179,22,02,11,320,,31,11,035,23,26,04,072,*75
$GPGSV,4,4,13,46,,,*79
$GPRMC,093201.000,A,4628.1510,N,01119.9335,E,0.23,337.75,231218,,,A*61
$GPVTG,337.75,T,,M,0.23,N,0.42,K,A*3F

$GPGGA,093202.000,4628.1510,N,01119.9334,E,1,8,0.96,248.8,M,47.6,M,,*5A
$GPGSA,A,3,09,03,07,17,19,23,31,01,,,,,1.23,0.96,0.76*0D
$GPGSV,4,1,13,23,84,063,25,09,62,237,37,03,49,093,29,06,46,302,*74
$GPGSV,4,2,13,22,29,103,,19,25,259,24,17,16,235,35,01,14,156,24*70
$GPGSV,4,3,13,07,13,179,21,02,11,320,,31,11,035,23,26,04,072,*
76
$GPGSV,4,4,13,46,,,*79
$GPRMC,093202.000,A,4628.1510,N,01119.9334,E,0.28,337.75,231218,,,A*68
$GPVTG,337.75,T,,M,0.28,N,0.52,K,A*35

$GPGGA,093203.000,4628.1509,N,01119.9334,E,1,8,0.96,248.8,M,47.6,M,,*53
$GPGSA,A,3,09,03,07,17,19,23,31,01,,,,,1.23,0.96,0.76*0D
$GPGSV,4,1,13,23,84,062,25,09,62,237,37,03,49,093,29,06,46,302,*75
$GPGSV,4,2,13,22,29,103,,19,25,259,24,17,16,235,35,01,14,156,24*70
$GPGSV,4,3,13,07,13,179,21,02,11,320,,31,11,035,23,26,04,072,*
76
$GPGSV,4,4,13,49,,,*76
$GPRMC,093203.000,A,4628.1509,N,01119.9334,E,0.28,337.75,231218,,,A*61
$GPVTG,337.75,T,,M,0.28,N,0.51,K,A*36

$GPGGA,093204.000,4628.1509,N,01119.9333,E,1,8,0.96,248.9,M,47.6,M,,*52
$GPGSA,A,3,09,03,07,17,19,23,31,01,,,,,1.23,0.96,0.76*0D
$GPGSV,4,1,13,23,84,062,25,09,62,237,37,03,49,093,29,06,46,302
,*75
$GPGSV,4,2,13,22,29,103,,19,25,259,24,17,16,235,34,01,14,156,24*71
$GPGSV,4,3,13,07,13,179,20,02,11,320,,31,11,035,23,26,04,072,*77
$GPGSV,4,4,13,49,,,*76
$GPRMC,093204.000,A,4628.1509,N,01119.9333,E,0.39,337.75,231218,,,A*61
$GPVTG,337.75,T,,M,0.39,N,0.72,K,A*37

$GPGGA,093205.000,4628.1508,N,01119.9332,E,1,8,0.96,248.9,M,47.6,M,,*53
$GPGSA,A,3,09,03,07,17,19,23,31,01,,,,,1.23,0.96,0.76*0D
$GPGSV,4,1,13,23,84,062,25,09,62,237,37,03,49,093,29,06,46,302,*75
$GPGSV,4,2,13,22,29,103,,19,25,259,24,17,16,235,34,01,14,156,24*71
$GPGSV,4,3,13,07,13,179,19,02,11,320,,31,11,035,22,26,04,072,*
7C
$GPGSV,4,4,13,51,,,*7F
$GPRMC,093205.000,A,4628.1508,N,01119.9332,E,0.14,337.75,231218,,,A*6F
$GPVTG,337.75,T,,M,0.14,N,0.26,K,A*39

$GPGGA,093206.000,4628.1508,N,01119.9331,E,1,8,0.96,249.0,M,47.6,M,,*5B
$GPGSA,A,3,09,03,07,17,19,23,31,01,,,,,1.23,0.96,0.76*0D
$GPGSV,4,1,13,23,84,062,25,09,62,237,37,03,49,093,29,06,46,302,*75
$GPGSV,4,2,13,22,29,103,,19,25,259,23,17,16,235,34,01,14,156,24*76
$GPGSV,4,3,13,07,13,179,19,02,11,320,,31,11,035,22,26,04,071,*
7F
$GPGSV,4,4,13,51,,,*7F
$GPRMC,093206.000,A,4628.1508,N,01119.9331,E,0.14,337.75,231218,,,A*6F
$GPVTG,337.75,T,,M,0.14,N,0.27,K,A*38

$GPGGA,093207.000,4628.1508,N,01119.9331,E,1,8,0.96,249.0,M,47.6,M,,*5A
$GPGSA,A,3,09,03,07,17,19,23,31,01,,,,,1.23,0.96,0.76*0D
$GPGSV,4,1,13,23,84,062,25,09,62,237,37,03,49,093,30,06,46,302,*7D
$GPGSV,4,2,13,22,29,103,,19,25,259,23,17
,16,235,34,01,14,156,24*76
$GPGSV,4,3,13,07,13,179,18,02,11,320,,31,11,035,22,26,04,071,*7E
$GPGSV,4,4,13,42,,,*7D
$GPRMC,093207.000,A,4628.1508,N,01119.9331,E,0.26,337.75,231218,,,A*6F
$GPVTG,337.75,T,,M,0.26,N,0.47,K,A*3F

$GPGGA,093208.000,4628.1508,N,01119.9331,E,1,8,0.96,249.1,M,47.6,M,,*54
$GPGSA,A,3,09,03,07,17,19,23,31,01,,,,,1.23,0.96,0.76*0D
$GPGSV,4,1,13,23,84,062,25,09,62,237,37,03,49,093,30,06,46,302,*7D
$GPGSV,4,2,13,22,29,103,,19,25,259,22,17,16,235,34,01,14,156,24*77
$GPGSV,4,3,13,07,13,179,18,02,11,320,,31,11,035,21,26,04,071,*
7D
$GPGSV,4,4,13,42,,,*7D
$GPRMC,093208.000,A,4628.1508,N,01119.9331,E,0.20,337.75,231218,,,A*66
$GPVTG,337.75,T,,M,0.20,N,0.36,K,A*3F

$GPGGA,093209.000,4628.1507,N,01119.9332,E,1,8,0.96,249.1,M,47.6,M,,*59
$GPGSA,A,3,09,03,07,17,19,23,31,01,,,,,1.23,0.96,0.76*0D
$GPGSV,4,1,13,23,84,062,25,09,62,237,37,03,49,093,30,06,46,302,*7D
$GPGSV,4,2,13,22,29,103,,19,25,259,21,17,16,235,34,01,14,156,24*74
$GPGSV,4,3,13,07,13,179,18,02,11,320,,31,11,035,21,26,04,071,*
7D
$GPGSV,4,4,13,50,,,*7E
$GPRMC,093209.000,A,4628.1507,N,01119.9332,E,0.41,337.75,231218,,,A*6C
$GPVTG,337.75,T,,M,0.41,N,0.76,K,A*3C

$GPGGA,093210.000,4628.1506,N,01119.9333,E,1,8,0.96,249.2,M,47.6,M,,*52
$GPGSA,A,3,09,03,07,17,19,23,31,01,,,,,1.23,0.96,0.76*0D
$GPGSV,4,1,13,23,84,062,25,09,62,237,38,03,49,093,30,06,46,302,*72
$GPGSV,4,2,13,22,29,103,,19,25,259,21,17,16,235,34,01,14,156,24*74
$GPGSV,4,3,13,07,1
3,179,18,02,11,320,,31,11,035,20,26,04,071,*7C
$GPGSV,4,4,13,50,,,*7E
$GPRMC,093210.000,A,4628.1506,N,01119.9333,E,0.49,337.75,231218,,,A*6C
$GPVTG,337.75,T,,M,0.49,N,0.91,K,A*3D

$GPGGA,093211.000,4628.1505,N,01119.9334,E,1,8,0.96,249.2,M,47.6,M,,*57
$GPGSA,A,3,09,03,07,17,19,23,31,01,,,,,1.23,0.96,0.76*0D
$GPGSV,4,1,13,23,84,062,25,09,62,237,38,03,49,093,30,06,46,302,*72
$GPGSV,4,2,13,22,29,103,,19,25,259,22,17,16,235,34,01,14,156,24*77
$GPGSV,4,3,13,07,13,179,18,02,11,320,,31,11,035,19,26,04,071,*
76
$GPGSV,4,4,13,48,,,*77
$GPRMC,093211.000,A,4628.1505,N,01119.9334,E,0.43,337.75,231218,,,A*63
$GPVTG,337.75,T,,M,0.43,N,0.81,K,A*36

$GPGGA,093212.000,4628.1505,N,01119.9335,E,1,8,0.96,249.3,M,47.6,M,,*54
$GPGSA,A,3,09,03,07,17,19,23,31,01,,,,,1.23,0.96,0.76*0D
$GPGSV,4,1,13,23,84,062,24,09,62,237,38,03,49,093,31,06,46,302,*72
$GPGSV,4,2,13,22,29,103,,19,25,259,22,17,16,235,34,01,14,156,24*77
$GPGSV,4,3,13,07,13,179,18,02,11,320,,31,11,035,19,26,04,071,*
76
$GPGSV,4,4,13,48,,,*77
$GPRMC,093212.000,A,4628.1505,N,01119.9335,E,0.22,337.75,231218,,,A*66
$GPVTG,337.75,T,,M,0.22,N,0.40,K,A*3C

$GPGGA,093213.000,4628.1505,N,01119.9336,E,1,8,0.96,249.3,M,47.6,M,,*56
$GPGSA,A,3,09,03,07,17,19,23,31,01,,,,,1.23,0.96,0.76*0D
$GPGSV,4,1,13,23,84,062,24,09,62,237,38,03,49,093,31,06,46,302,*72
$GPGSV,4,2,13,22,29,103,,19,25,259,21,17,16,235,34,01,14,156,23*73
$GPGSV,4,3,13,07,13,179,17,02,11,320,,31,11,035,19,26,04,071,*
79

$GPGSV,4,4,13,35,,,*7D
$GPRMC,093213.000,A,4628.1505,N,01119.9336,E,0.15,337.75,231218,,,A*60
$GPVTG,337.75,T,,M,0.15,N,0.28,K,A*36

$GPGGA,093214.000,4628.1505,N,01119.9336,E,1,8,0.97,249.4,M,47.6,M,,*57
$GPGSA,A,3,09,03,07,17,19,23,31,01,,,,,1.53,0.97,1.18*02
$GPGSV,4,1,13,23,84,062,23,09,62,237,38,03,49,093,31,06,46,302,*75
$GPGSV,4,2,13,22,29,103,,19,25,259,20,17,16,235,34,01,14,156,22*73
$GPGSV,4,3,13,07,13,179,17,02,11,320,,31,11,035,19,26,04,071,*
79
$GPGSV,4,4,13,35,,,*7D
$GPRMC,093214.000,A,4628.1505,N,01119.9336,E,0.20,337.75,231218,,,A*61
$GPVTG,337.75,T,,M,0.20,N,0.37,K,A*3E

$GPGGA,093215.000,4628.1506,N,01119.9337,E,1,8,0.97,249.4,M,47.6,M,,*54
$GPGSA,A,3,09,03,07,17,19,23,31,01,,,,,1.53,0.97,1.18*02
$GPGSV,4,1,13,23,84,062,22,09,62,237,38,03,49,093,32,06,46,302,*77
$GPGSV,4,2,13,22,29,103,,19,25,259,20,17,16,235,33,01,14,156,21*77
$GPGSV,4,3,13,07,13,179,16,02,11,320,,31,11,035,19,26,04,071,*
78
$GPGSV,4,4,13,47,,,*78
$GPRMC,093215.000,A,4628.1506,N,01119.9337,E,0.27,337.75,231218,,,A*65
$GPVTG,337.75,T,,M,0.27,N,0.50,K,A*38

$GPGGA,093216.000,4628.1507,N,01119.9338,E,1,8,0.96,249.5,M,47.6,M,,*59
$GPGSA,A,3,09,03,07,17,19,23,31,01,,,,,1.23,0.96,0.76*0D
$GPGSV,4,1,13,23,84,062,21,09,62,237,38,03,49,093,32,06,46,302,*74
$GPGSV,4,2,13,22,29,103,,19,25,259,19,17,16,235,33,01,14,156,20*7C
$GPGSV,4,3,13,07,13,179,15,02,11,320,,31,11,035,19,26,04,071,*
7B
$GPGSV,4,4,13,47,,,*78
$GPRMC,093216.000,A,
4628.1507,N,01119.9338,E,0.19,337.75,231218,,,A*65
$GPVTG,337.75,T,,M,0.19,N,0.36,K,A*35

$GPGGA,093217.000,4628.1507,N,01119.9338,E,1,7,1.07,249.5,M,47.6,M,,*5E
$GPGSA,A,3,09,03,17,19,23,31,01,,,,,,1.32,1.07,0.77*02
$GPGSV,4,1,13,23,84,062,21,09,62,237,38,03,49,093,32,06,46,302,*74
$GPGSV,4,2,13,37,35,166,,22,29,103,,19,25,259,19,17,16,235,32*7A
$GPGSV,4,3,13,01,14,156,20,07,13,179,,02,11,320,,31,11,035,19*7D

$GPGSV,4,4,13,26,04,071,*4D
$GPRMC,093217.000,A,4628.1507,N,01119.9338,E,0.14,337.75,231218,,,A*69
$GPVTG,337.75,T,,M,0.14,N,0.26,K,A*39

$GPGGA,093218.000,4628.1507,N,01119.9339,E,1,7,1.07,249.5,M,47.6,M,,*50
$GPGSA,A,3,09,03,17,19,23,31,01,,,,,,1.32,1.07,0.77*02
$GPGSV,4,1,13,23,84,062,21,09,62,237,38,03,49,093,32,06,46,302,*74
$GPGSV,4,2,13,37,35,166,,22,29,103,,19,25,259,18,17,16,235,32*7B
$GPGSV,4,3,13,01,14,156,19,07,13,179,,02,11,320,,31,11,035,19*77

$GPGSV,4,4,13,26,04,071,*4D
$GPRMC,093218.000,A,4628.1507,N,01119.9339,E,0.20,337.75,231218,,,A*60
$GPVTG,337.75,T,,M,0.20,N,0.37,K,A*3E

$GPGGA,093219.000,4628.1508,N,01119.9340,E,1,7,1.07,249.6,M,47.6,M,,*53
$GPGSA,A,3,09,03,17,19,23,31,01,,,,,,1.32,1.07,0.77*02
$GPGSV,4,1,13,23,84,062,21,09,62,237,38,03,49,093,32,06,46,302,*74
$GPGSV,4,2,13,39,34,161,,22,29,103,,19,25,259,18,17,16,235,32*73
$GPGSV,4,3,13,01,14,156,19,07,13,179,,02,11,320,,31,11,035,20*7D

$GPGSV,4,4,13,26,04,071,*4D
$GPRMC,093219.000,A,4628.1508,N,01119.9340,E,0.45,337.75,231218
,,,A*63
$GPVTG,337.75,T,,M,0.45,N,0.84,K,A*35

$GPGGA,093220.000,4628.1506,N,01119.9340,E,1,7,1.07,249.6,M,47.6,M,,*57
$GPGSA,A,3,09,03,17,19,23,31,01,,,,,,1.32,1.07,0.77*02
$GPGSV,4,1,13,23,84,062,21,09,62,237,38,03,49,093,32,06,46,302,*74
$GPGSV,4,2,13,39,34,161,,22,29,103,,19,25,259,17,17,16,235,32*7C
$GPGSV,4,3,13,01,14,156,20,07,13,179,,02,11,320,,31,11,035,20*77

$GPGSV,4,4,13,26,04,071,*4D
$GPRMC,093220.000,A,4628.1506,N,01119.9340,E,0.42,337.75,231218,,,A*60
$GPVTG,337.75,T,,M,0.42,N,0.78,K,A*31

$GPGGA,093221.000,4628.1505,N,01119.9340,E,1,7,1.07,249.7,M,47.6,M,,*54
$GPGSA,A,3,09,03,17,19,23,31,01,,,,,,1.32,1.07,0.77*02
$GPGSV,4,1,13,23,84,062,21,09,62,238,38,03,49,093,32,06,46,302,*7B
$GPGSV,4,2,13,36,33,153,,22,29,103,,19,25,259,17,17,16,235,31*76
$GPGSV,4,3,13,01,14,156,21,07,13,179,,02,11,320,,31,11,035,20*76

$GPGSV,4,4,13,26,04,071,*4D
$GPRMC,093221.000,A,4628.1505,N,01119.9340,E,0.24,337.75,231218,,,A*62
$GPVTG,337.75,T,,M,0.24,N,0.45,K,A*3F

$GPGGA,093222.000,4628.1505,N,01119.9340,E,1,7,1.07,249.7,M,47.6,M,,*57
$GPGSA,A,3,09,03,17,19,23,31,01,,,,,,1.32,1.07,0.77*02
$GPGSV,4,1,13,23,84,062,21,09,62,238,38,03,49,093,32,06,46,302,*7B
$GPGSV,4,2,13,36,33,153,,22,29,103,,19,25,259,17,17,16,235,30*77
$GPGSV,4,3,13,01,14,156,21,07,13,179,,02,11,320,,31,11,035,20*76

$GPGSV,4,4,13,26,04,071,*4D
$GPRMC,093222.000,A,4628.1505,N,01119.9340,E,0.31,337.75,231218,,,A*65
$GPVTG,337.75,T,,M,0.31,N,0.58,K,A
*37

$GPGGA,093223.000,4628.1504,N,01119.9341,E,1,7,1.07,249.7,M,47.6,M,,*56
$GPGSA,A,3,09,03,17,19,23,31,01,,,,,,1.32,1.07,0.77*02
$GPGSV,4,1,13,23,84,062,21,09,62,238,38,03,49,093,32,06,46,302,*7B
$GPGSV,4,2,13,36,33,153,,22,29,103,,19,25,259,17,17,16,235,30*77
$GPGSV,4,3,13,01,14,156,21,07,13,179,,02,11,320,,31,11,035,21*77

$GPGSV,4,4,13,26,04,071,*4D
$GPRMC,093223.000,A,4628.1504,N,01119.9341,E,0.69,168.26,231218,,,A*67
$GPVTG,168.26,T,,M,0.69,N,1.28,K,A*32

$GPGGA,093224.000,4628.1503,N,01119.9343,E,1,7,1.07,249.9,M,47.6,M,,*5A
$GPGSA,A,3,09,03,17,19,23,31,01,,,,,,1.32,1.07,0.77*02
$GPGSV,4,1,13,23,84,062,21,09,62,238,38,03,49,093,32,06,46,302,*7B
$GPGSV,4,2,13,36,33,153,,22,29,103,,19,25,259,17,17,16,235,30*77
$GPGSV,4,3,13,01,14,156,21,07,13,179,,02,11,320,,31,11,035,21*77

$GPGSV,4,4,13,26,04,071,*4D
$GPRMC,093224.000,A,4628.1503,N,01119.9343,E,0.86,181.81,231218,,,A*6E
$GPVTG,181.81,T,,M,0.86,N,1.59,K,A*3F

$GPGGA,093225.000,4628.1506,N,01119.9347,E,1,7,1.07,249.9,M,47.6,M,,*5A
$GPGSA,A,3,09,03,17,19,23,31,01,,,,,,1.32,1.07,0.77*02
$GPGSV,4,1,13,23,84,062,20,09,62,238,38,03,49,093,32,06,46,302,*7A
$GPGSV,4,2,13,36,33,153,28,22,29,103,,19,25,259,17,17,16,235,30*7D
$GPGSV,4,3,13,01,14,156,20,07,13,179,,02,11,320,,31,11,035,20*77

$GPGSV,4,4,13,26,04,071,*4D
$GPRMC,093225.000,A,4628.1506,N,01119.9347,E,0.55,181.81,231218,,,A*60
$GPVTG,181.81,T,,M,0.55,N,1.02,K,A*3F

$GPGGA,093226.000,4628.1507,N,01119.
9352,E,1,7,1.07,250.1,M,47.6,M,,*5C
$GPGSA,A,3,09,03,17,19,23,31,01,,,,,,1.32,1.07,0.77*02
$GPGSV,4,1,13,23,84,062,20,09,62,238,38,03,49,093,32,06,46,302,*7A
$GPGSV,4,2,13,36,33,153,28,22,29,103,,19,25,259,17,17,16,235,30*7D
$GPGSV,4,3,13,01,14,156,20,07,13,179,,02,11,320,,31,11,035,20*77
$GPGSV,4,4,13,26,04,071,*4D
$GPRM
C,093226.000,A,4628.1507,N,01119.9352,E,0.55,181.81,231218,,,A*66
$GPVTG,181.81,T,,M,0.55,N,1.02,K,A*3F

$GPGGA,093227.000,4628.1507,N,01119.9355,E,1,7,1.07,250.0,M,47.6,M,,*5B
$GPGSA,A,3,09,03,17,19,23,31,01,,,,,,1.32,1.07,0.77*02
$GPGSV,4,1,13,23,84,062,20,09,62,238,38,03,49,093,32,06,46,302,*7A
$GPGSV,4,2,13,36,33,153,,22,29,103,,19,25,259,17,17,16,235,29*7F
$GPGSV,4,3,13,01,14,156,20,07,13,179,,02,11,320,,31,11,035,20*77

$GPGSV,4,4,13,26,04,071,*4D
$GPRMC,093227.000,A,4628.1507,N,01119.9355,E,0.50,181.81,231218,,,A*65
$GPVTG,181.81,T,,M,0.50,N,0.93,K,A*33

$GPGGA,093228.000,4628.1510,N,01119.9358,E,1,7,1.07,249.9,M,47.6,M,,*5E
$GPGSA,A,3,09,03,17,19,23,31,01,,,,,,1.32,1.07,0.77*02
$GPGSV,4,1,13,23,84,062,20,09,62,238,38,03,49,093,32,06,46,302,*7A
$GPGSV,4,2,13,36,33,153,,22,29,103,,19,25,259,17,17,16,235,28*7E
$GPGSV,4,3,13,01,14,156,21,07,13,179,,02,11,320,,31,11,035,21*77

$GPGSV,4,4,13,26,04,071,*4D
$GPRMC,093228.000,A,4628.1510,N,01119.9358,E,0.29,181.81,231218,,,A*6F
$GPVTG,181.81,T,,M,0.29,N,0.54,K,A*36

$GPGGA,093229.000,4628.1510,N,01119.9359,E,1,7,1.07,249.9,M,47.6,M,,*5E
$GPG
SA,A,3,09,03,17,19,23,31,01,,,,,,1.32,1.07,0.77*02
$GPGSV,4,1,13,23,84,062,20,09,62,238,38,03,49,093,32,06,46,302,*7A
$GPGSV,4,2,13,36,33,153,28,22,29,103,,19,25,259,17,17,16,235,28*74
$GPGSV,4,3,13,01,14,156,21,07,13,179,,02,11,320,,31,11,035,21*77
$GPGSV,4,4,13,26,04,071,*4D
$GPRMC,093229.000,A,4628.1510,N,01119.9359,E,0
.42,181.81,231218,,,A*62
$GPVTG,181.81,T,,M,0.42,N,0.78,K,A*35

$GPGGA,093230.000,4628.1509,N,01119.9360,E,1,7,1.07,249.9,M,47.6,M,,*54
$GPGSA,A,3,09,03,17,19,23,31,01,,,,,,1.32,1.07,0.77*02
$GPGSV,4,1,13,23,84,062,20,09,62,238,38,03,49,093,32,06,46,302,*7A
$GPGSV,4,2,13,36,33,153,28,22,29,103,,19,25,259,16,17,16,235,28*75
$GPGSV,4,3,13,01,14,156,22,07,13,179,,02,11,320,,31,11,035,21*74

$GPGSV,4,4,13,26,04,071,*4D
$GPRMC,093230.000,A,4628.1509,N,01119.9360,E,0.62,155.02,231218,,,A*68
$GPVTG,155.02,T,,M,0.62,N,1.15,K,A*3F

$GPGGA,093231.000,4628.1508,N,01119.9364,E,1,7,1.07,249.9,M,47.6,M,,*50
$GPGSA,A,3,09,03,17,19,23,31,01,,,,,,1.32,1.07,0.77*02
$GPGSV,4,1,13,23,84,062,19,09,62,238,38,03,49,093,32,06,46,302,*70
$GPGSV,4,2,13,36,33,153,28,22,29,103,,19,25,259,16,17,16,235,28*75
$GPGSV,4,3,13,01,14,156,23,07,13,179,,02,11,320,,31,11,035,21*75

$GPGSV,4,4,13,26,04,071,*4D
$GPRMC,093231.000,A,4628.1508,N,01119.9364,E,0.42,155.02,231218,,,A*6E
$GPVTG,155.02,T,,M,0.42,N,0.78,K,A*37

$GPGGA,093232.000,4628.1509,N,01119.9365,E,1,7,1.07,249.9,M,47.6,M,,*53
$GPGSA,A,3,09,03,17,19,23,31,01,,,,,,1.32
,1.07,0.77*02
$GPGSV,4,1,13,23,84,062,18,09,62,238,38,03,49,093,32,06,46,302,*71
$GPGSV,4,2,13,33,30,214,,22,29,103,,19,25,259,16,17,16,235,28*79
$GPGSV,4,3,13,01,14,156,23,07,13,179,,02,11,320,,31,11,035,21*75
$GPGSV,4,4,13,26,04,071,*4D
$GPRMC,093232.000,A,4628.1509,N,01119.9365,E,0.33,155.02,231218,,,A*6B
$GPVTG,155.02
,T,,M,0.33,N,0.62,K,A*3A

$GPGGA,093233.000,4628.1508,N,01119.9365,E,1,7,1.07,249.9,M,47.6,M,,*53
$GPGSA,A,3,09,03,17,19,23,31,01,,,,,,1.32,1.07,0.77*02
$GPGSV,4,1,13,23,84,062,18,09,62,238,38,03,49,093,33,06,46,302,*70
$GPGSV,4,2,13,33,30,214,,22,29,103,,19,25,259,16,17,16,235,28*79
$GPGSV,4,3,13,01,14,156,23,07,13,179,,02,11,320,,31,11,035,21*75

$GPGSV,4,4,13,26,04,071,*4D
$GPRMC,093233.000,A,4628.1508,N,01119.9365,E,0.44,155.02,231218,,,A*6B
$GPVTG,155.02,T,,M,0.44,N,0.81,K,A*37

$GPGGA,093234.000,4628.1505,N,01119.9364,E,1,7,1.07,249.9,M,47.6,M,,*58
$GPGSA,A,3,09,03,17,19,23,31,01,,,,,,1.32,1.07,0.77*02
$GPGSV,4,1,13,23,84,062,17,09,62,238,38,03,49,093,33,06,46,302,*7F
$GPGSV,4,2,13,33,30,214,,22,29,103,,19,25,259,16,17,16,235,28*79
$GPGSV,4,3,13,01,14,156,23,07,13,179,,02,11,320,,31,11,035,20*74

$GPGSV,4,4,13,26,04,071,*4D
$GPRMC,093234.000,A,4628.1505,N,01119.9364,E,0.74,189.38,231218,,,A*6B
$GPVTG,189.38,T,,M,0.74,N,1.37,K,A*30

$GPGGA,093235.000,4628.1506,N,01119.9366,E,1,7,1.07,249.8,M,47.6,M,,*59
$GPGSA,A,3,09,03,17,19,23,31,01,,,,,,1.32,1.07,0.77*02
$GPGSV,4,1,13,23,84,061,18,0
9,62,238,38,03,49,093,33,06,46,302,*73
$GPGSV,4,2,13,33,30,214,,22,29,103,,19,25,259,16,17,16,235,28*79
$GPGSV,4,3,13,01,14,156,24,07,13,179,,02,11,320,,31,11,035,19*79
$GPGSV,4,4,13,26,04,071,*4D
$GPRMC,093235.000,A,4628.1506,N,01119.9366,E,0.49,189.38,231218,,,A*65
$GPVTG,189.38,T,,M,0.49,N,0.90,K,A*32

$GPGGA,093236.000,4628.1505,N,01119.9366,E,1,8,0.96,249.8,M,47.6,M,,*5F
$GPGSA,A,3,09,03,07,17,19,23,31,01,,,,,1.23,0.96,0.76*0D
$GPGSV,4,1,13,23,84,061,19,09,62,238,38,03,49,093,32,06,46,302,*73
$GPGSV,4,2,13,33,30,214,28,22,29,103,,19,25,259,16,17,16,235,28*73
$GPGSV,4,3,13,01,14,156,24,07,13,179,15,02,11,320,,31,11,035,1
9*7D
$GPGSV,4,4,13,26,04,071,*4D
$GPRMC,093236.000,A,4628.1505,N,01119.9366,E,0.51,189.38,231218,,,A*6C
$GPVTG,189.38,T,,M,0.51,N,0.94,K,A*3F

$GPGGA,093237.000,4628.1505,N,01119.9368,E,1,8,0.96,249.8,M,47.6,M,,*50
$GPGSA,A,3,09,03,07,17,19,23,31,01,,,,,1.23,0.96,0.76*0D
$GPGSV,4,1,13,23,84,061,19,09,62,238,38,03,49,093,32,06,46,302,*73
$GPGSV,4,2,13,33,30,214,28,22,29,103,,19,25,259,17,17,16,235,28*72
$GPGSV,4,3,13,01,14,156,24,07,13,179,17,02,11,320,,31,11,035,1
8*7E
$GPGSV,4,4,13,26,04,071,*4D
$GPRMC,093237.000,A,4628.1505,N,01119.9368,E,0.52,189.38,231218,,,A*60
$GPVTG,189.38,T,,M,0.52,N,0.97,K,A*3F

$GPGGA,093238.000,4628.1505,N,01119.9371,E,1,8,0.96,249.7,M,47.6,M,,*58
$GPGSA,A,3,09,03,07,17,19,23,31,01,,,,,1.23,0.96,0.76*0D
$GPGSV,4,1,13,23,84,061,20,09,62,238,38,03,49,093,32,06,4
6,302,*79
$GPGSV,4,2,13,33,30,214,,22,29,103,,19,25,259,19,17,16,235,27*79
$GPGSV,4,3,13,01,14,156,23,07,13,179,16,02,11,320,,31,11,035,18*78
$GPGSV,4,4,13,26,04,071,*4D
$GPRMC,093238.000,A,4628.1505,N,01119.9371,E,0.48,189.38,231218,,,A*6C
$GPVTG,189.38,T,,M,0.48,N,0.89,K,A*3B

$GPGGA,093239.000,4628.1504,N,01119.9372,E,1,8,0.96,249.7,M,47.6,M,,*5B
$GPGSA,A,3,09,03,07,17,19,23,31,01,,,,,1.23,0.96,0.76*0D
$GPGSV,4,1,13,23,84,061,20,09,62,238,38,03,49,093,32,06,46,302,*79
$GPGSV,4,2,13,33,30,214,,22,29,103,,19,25,259,18,17,16,235,27*78
$GPGSV,4,3,13,01,14,156,24,07,13,179,16,02,11,320,,31,11,035,18*
7F
$GPGSV,4,4,13,26,04,071,*4D
$GPRMC,093239.000,A,4628.1504,N,01119.9372,E,0.53,189.38,231218,,,A*65
$GPVTG,189.38,T,,M,0.53,N,0.99,K,A*30

$GPGGA,093240.000,4628.1502,N,01119.9373,E,1,8,0.96,249.7,M,47.6,M,,*52
$GPGSA,A,3,09,03,07,17,19,23,31,01,,,,,1.23,0.96,0.76*0D
$GPGSV,4,1,13,23,84,061,21,09,62,238,38,03,49,093,32,06,46,302,*78
$GPGSV,4,2,13,33,30,214,28,22,29,103,,19,25,259,18,17,16,235,27*72
$GPGSV,4,3,13,01,14,156,24,07,13,179,16,02,11,320,,31,11,035,1
8*7F
$GPGSV,4,4,13,26,04,071,*4D
$GPRMC,093240.000,A,4628.1502,N,01119.9373,E,0.70,143.34,231218,,,A*67
$GPVTG,143.34,T,,M,0.70,N,1.29,K,A*31

$GPGGA,093241.000,4628.1495,N,01119.9380,E,1,8,0.96,249.7,M,47.6,M,,*50
$GPGSA,A,3,09,03,07,17,19,23,31,01,,,,,1.23,0.96,0.76*0D
$GPGSV,4,1,13,23,84,061,23,09,62,238,38,03,49,093,31,06,46,302,*79
$GPGSV,4,2,13,33,3
0,214,27,22,29,103,,19,25,259,18,17,16,235,27*7D
$GPGSV,4,3,13,01,14,156,24,07,13,179,16,02,11,320,,31,11,035,18*7F
$GPGSV,4,4,13,26,04,071,*4D
$GPRMC,093241.000,A,4628.1495,N,01119.9380,E,1.09,166.73,231218,,,A*6E
$GPVTG,166.73,T,,M,1.09,N,2.02,K,A*30

$GPGGA,093242.000,4628.1490,N,01119.9383,E,1,8,0.96,249.7,M,47.6,M,,*55
$GPGSA,A,3,09,03,07,17,19,23,31,01,,,,,1.23,0.96,0.76*0D
$GPGSV,4,1,13,23,84,061,24,09,62,238,38,03,49,093,30,06,46,302,*7F
$GPGSV,4,2,13,33,30,214,27,22,29,103,,19,25,259,18,17,16,235,27*7D
$GPGSV,4,3,13,01,14,156,25,07,13,179,16,02,11,320,,31,11,035,1
8*7E
$GPGSV,4,4,13,26,04,071,*4D
$GPRMC,093242.000,A,4628.1490,N,01119.9383,E,1.57,184.79,231218,,,A*66
$GPVTG,184.79,T,,M,1.57,N,2.92,K,A*34

$GPGGA,093243.000,4628.1480,N,01119.9381,E,1,7,1.03,249.6,M,47.6,M,,*54
$GPGSA,A,3,09,07,17,19,23,31,01,,,,,,1.29,1.03,0.78*07
$GPGSV,4,1,13,23,84,061,24,09,62,238,38,03,49,093,30,06,46,302,*7F
$GPGSV,4,2,13,22,29,103,,19,25,259,18,17,16,235,27,44,15,117,*7F
$GPGSV,4,3,13,01,14,156,25,07,13,179,16,02,11,320,,31,10,035,18*7F

$GPGSV,4,4,13,26,04,071,*4D
$GPRMC,093243.000,A,4628.1480,N,01119.9381,E,2.41,201.81,231218,,,A*69
$GPVTG,201.81,T,,M,2.41,N,4.46,K,A*36

$GPGGA,093244.000,4628.1467,N,01119.9374,E,1,6,1.21,249.5,M,47.6,M,,*52
$GPGSA,A,3,09,03,17,23,31,01,,,,,,,1.44,1.21,0.78*00
$GPGSV,4,1,13,23,84,061,25,09,62,238,38,03,49,093,27,06,46,302,*78
$GPGSV,4,2,13,22,29,103,,19,25,259,17,17,16,235,26,
44,15,117,*71
$GPGSV,4,3,13,01,14,156,25,07,13,179,16,02,11,320,,31,10,035,18*7F
$GPGSV,4,4,13,26,04,071,*4D
$GPRMC,093244.000,A,4628.1467,N,01119.9374,E,3.36,209.18,231218,,,A*64
$GPVTG,209.18,T,,M,3.36,N,6.22,K,A*3F

$GPGGA,093245.000,4628.1454,N,01119.9366,E,1,5,1.32,249.7,M,47.6,M,,*53
$GPGSA,A,3,09,17,23,31,01,,,,,,,,1.55,1.32,0.80*06
$GPGSV,4,1,13,23,84,061,24,09,62,238,38,03,49,093,26,06,46,302,*78
$GPGSV,4,2,13,37,35,166,,22,29,103,,19,25,259,,17,16,235,26*77
$GPGSV,4,3,13,01,14,156,25,07,13,179,,02,11,320,,31,10,035,18*78
$GPGSV
,4,4,13,26,04,071,*4D
$GPRMC,093245.000,A,4628.1454,N,01119.9366,E,4.76,214.14,231218,,,A*65
$GPVTG,214.14,T,,M,4.76,N,8.82,K,A*38

$GPGGA,093246.000,4628.1440,N,01119.9356,E,1,5,1.35,250.1,M,47.6,M,,*5F
$GPGSA,A,3,09,17,23,31,01,,,,,,,,1.90,1.35,1.33*01
$GPGSV,4,1,13,23,84,061,24,09,62,238,38,03,49,093,,06,46,302,*7C
$GPGSV,4,2,13,37,35,166,,22,29,103,,19,25,259,,17,16,235,26*77
$GPGSV,4,3,13,01,14,156,24,07,13,179,,02,11,320,,31,10,035,18*79
$GPGSV,4
,4,13,26,04,071,*4D
$GPRMC,093246.000,A,4628.1440,N,01119.9356,E,7.06,219.12,231218,,,A*6F
$GPVTG,219.12,T,,M,7.06,N,13.08,K,A*0F

$GPGGA,093247.000,4628.1425,N,01119.9352,E,1,5,1.76,250.4,M,47.6,M,,*5B
$GPGSA,A,3,09,03,17,23,01,,,,,,,,2.00,1.76,0.96*03
$GPGSV,4,1,13,23,84,061,24,09,62,238,38,03,49,093,25,06,46,302,*7B
$GPGSV,4,2,13,37,35,166,,22,29,103,,19,25,259,,17,16,235,26*77
$GPGSV,4,3,13,01,14,156,24,07,13,179,,02,11,3
20,,31,10,035,*70
$GPGSV,4,4,13,26,04,071,*4D
$GPRMC,093247.000,A,4628.1425,N,01119.9352,E,5.13,202.88,231218,,,A*66
$GPVTG,202.88,T,,M,5.13,N,9.50,K,A*36

$GPGGA,093248.000,4628.1416,N,01119.9359,E,1,5,1.76,250.9,M,47.6,M,,*52
$GPGSA,A,3,09,03,17,23,01,,,,,,,,2.00,1.76,0.96*03
$GPGSV,3,1,12,23,84,061,25,09,62,238,38,03,49,093,30,06,46,302,*78
$GPGSV,3,2,12,22,29,103,,19,25,259,,17,16,235,26,01,14,156,24*72
$GPGSV,3,3,12,07,13,179,,02,11,320,,31,10,035,,26,04,071,*70
$GPRMC,0
93248.000,A,4628.1416,N,01119.9359,E,2.53,186.52,231218,,,A*69
$GPVTG,186.52,T,,M,2.53,N,4.68,K,A*3B

$GPGGA,093249.000,4628.1411,N,01119.9359,E,1,5,1.94,251.2,M,47.6,M,,*52
$GPGSA,A,3,09,19,17,23,01,,,,,,,,2.16,1.94,0.96*03
$GPGSV,4,1,13,23,84,061,26,09,62,238,38,03,49,093,30,06,46,302,*7D
$GPGSV,4,2,13,39,34,161,,22,29,103,,19,25,259,19,17,16,235,26*77
$GPGSV,4,3,13,01,14,156,25,07,13,179,,02,11,320,,31,10,035,*71
$GPGSV
,4,4,13,26,04,071,*4D
$GPRMC,093249.000,A,4628.1411,N,01119.9359,E,1.12,206.75,231218,,,A*67
$GPVTG,206.75,T,,M,1.12,N,2.08,K,A*33

$GPGGA,093250.000,4628.1413,N,01119.9363,E,1,6,1.62,251.9,M,47.6,M,,*50
$GPGSA,A,3,09,03,19,17,23,01,,,,,,,1.87,1.62,0.93*07
$GPGSV,4,1,13,23,84,061,26,09,62,238,37,03,49,093,30,06,46,301,*71
$GPGSV,4,2,13,39,34,161,,22,29,103,,19,25,259,19,17,16,235,26*77
$GPGSV,4,3,13,01,14,156,25,07,13,179,,02,11,320,,31,10,035,*71
$GPG
SV,4,4,13,26,04,071,*4D
$GPRMC,093250.000,A,4628.1413,N,01119.9363
,E,0.54,206.75,231218,,,A*67
$GPVTG,206.75,T,,M,0.54,N,1.00,K,A*3B

$GPGGA,093251.000,4628.1418,N,01119.9369,E,1,6,1.61,252.3,M,47.6,M,,*5A
$GPGSA,A,3,09,03,19,17,23,01,,,,,,,1.87,1.61,0.93*04
$GPGSV,4,1,13,23,84,061,26,09,62,238,37,03,49,093,30,06,46,301,*71
$GPGSV,4,2,13,39,34,161,,22,29,103,,19,25,259,21,17,16,235,26*7C
$GPGSV,4,3,13,01,14,156,25,07,13,179,,02,11,320,,31,10,035,*71
$GPG
SV,4,4,13,26,04,071,*4D
$GPRMC,093251.000,A,4628.1418,N,01119.9369,E,0.68,31.60,231218,,,A*5A
$GPVTG,31.60,T,,M,0.68,N,1.26,K,A*02

$GPGGA,093252.000,4628.1419,N,01119.9375,E,1,7,1.09,252.8,M,47.6,M,,*51
$GPGSA,A,3,09,03,19,17,23,02,01,,,,,,1.35,1.09,0.80*03
$GPGSV,4,1,13,23,84,061,26,09,62,238,37,03,49,093,31,06,46,301,*70
$GPGSV,4,2,13,36,33,153,,22,29,103,,19,25,259,21,17,16,235,26*75
$GPGSV,4,3,13,01,14,156,25,07,13,179,,02,11,320,26,31,10,035,*75

$GPGSV,4,4,13,26,04,071,*4D
$GPRMC,093252.000,A,4628.1419,N,01119.9375,E,0.28,31.60,231218,,,A*51
$GPVTG,31.60,T,,M,0.28,N,0.51,K,A*07

$GPGGA,093253.000,4628.1418,N,01119.9382,E,1,7,1.09,253.1,M,47.6,M,,*51
$GPGSA,A,3,09,03,19,17,23,02,01,,,,,,1.35,1.09,0.80*03
$GPGSV,4,1,13,23,84,061,26,09,63,238,37,03,49,093,30,06,46,301,*70
$GPGSV,4,2,13,36,33,153,,22,29,103,,19,25,259,19,17,16,235,26*7E
$GPGSV,4,3,13,01,14,156,25,07,13,179,,02,11,320,25,31,10,035,*76

$GPGSV,4,4,13,26,04,071,*4D
$GPRMC,093253.000,A,4628.1418,N,01119.9382,E,0.36,31.60,231218,,,A*56
$GPVTG,31.60,T,,M,0.36
,N,0.67,K,A*0D

$GPGGA,093254.000,4628.1411,N,01119.9389,E,1,7,1.09,253.8,M,47.6,M,,*5D
$GPGSA,A,3,09,03,19,17,23,02,01,,,,,,1.35,1.09,0.80*03
$GPGSV,4,1,13,23,84,061,26,09,63,238,37,03,49,093,30,06,46,301,*70
$GPGSV,4,2,13,36,33,153,,22,29,103,,19,25,259,19,17,16,235,26*7E
$GPGSV,4,3,13,01,14,156,25,07,13,179,,02,11,320,27,31,10,035,*74

$GPGSV,4,4,13,26,04,071,*4D
$GPRMC,093254.000,A,4628.1411,N,01119.9389,E,0.54,31.60,231218,,,A*57
$GPVTG,31.60,T,,M,0.54,N,1.00,K,A*09

$GPGGA,093255.000,4628.1411,N,01119.9398,E,1,7,1.09,254.3,M,47.6,M,,*50
$GPGSA,A,3,09,03,19,17,23,02,01,,,,,,1.35,1.09,0.80*03
$GPGSV,4,1,13,23,84,061,26,09,63,238,37,03,49,093,30,06,46,301,*70
$GPGSV,4,2,13,33,30,214,,22,29,103,,19,25,259,19,17,16,235,26*78
$GPGSV,4,3,13,01,14,156,25,07,13,179,,02,11,320,26,31,10,035,*75

$GPGSV,4,4,13,26,04,071,*4D
$GPRMC,093255.000,A,4628.1411,N,01119.9398,E,0.63,97.48,231218,,,A*54
$GPVTG,97.48,T,,M,0.63,N,1.17,K,A*0D

$GPGGA,093256.000,4628.1408,N,01119.9404,E,1,7,1.09,255.0,M,47.6,M,,*5B
$GPGSA,A,3,09,03,19,17,23,02,01,,,,,,1.35,1.09,0.80*03
$GPGSV,4,1,13,23,84,061,27,09,63,238,37,03,49,093,30,06,46,301,*71
$GPGSV,4,2,13,33,30,214,,22,29,103,,19,25,259,20,17,16,235,25*71
$GPGSV,4,3,13,01,14,156,25,07,13,179,,02,11,320,26,31,10,035,*75

$GPGSV,4,4,13,26,04,071,*4D
$GPRMC,093256.000,A,4628.1408,N,01119.9404,E,0.42,97.48,231218,,,A*5E
$GPVTG,97.48,T,,M,0.42,N,0.79,K,A*07

$GPGGA,093257.000,4628.1402,N,011
19.9412,E,1,7,1.09,255.6,M,47.6,M,,*51
$GPGSA,A,3,09,03,19,17,23,02,01,,,,,,1.35,1.09,0.80*03
$GPGSV,4,1,13,23,84,061,27,09,63,238,37,03,49,093,30,06,46,301,*71
$GPGSV,4,2,13,33,30,214,,22,29,103,,19,25,259,20,17,16,235,25*71
$GPGSV,4,3,13,01,14,156,25,07,13,179,,02,11,320,26,31,10,035,*75
$GPGSV,4,4,13,26,04,071,*4D
$GPR
MC,093257.000,A,4628.1402,N,01119.9412,E,0.32,97.48,231218,,,A*55
$GPVTG,97.48,T,,M,0.32,N,0.60,K,A*08

$GPGGA,093258.000,4628.1394,N,01119.9415,E,1,7,1.09,255.8,M,47.6,M,,*5F
$GPGSA,A,3,09,03,19,17,23,02,01,,,,,,1.35,1.09,0.80*03
$GPGSV,4,1,13,23,84,061,27,09,63,238,37,03,49,093,30,06,46,301,*71
$GPGSV,4,2,13,22,29,103,,19,25,259,20,17,16,235,25,44,15,117,*76
$GPGSV,4,3,13,01,14,156,25,07,13,179,,02,11,320,26,31,10,035,*75

$GPGSV,4,4,13,26,04,071,*4D
$GPRMC,093258.000,A,4628.1394,N,01119.9415,E,0.30,97.48,231218,,,A*57
$GPVTG,97.48,T,,M,0.30,N,0.56,K,A*0F

$GPGGA,093259.000,4628.1394,N,01119.9422,E,1,7,1.09,256.2,M,47.6,M,,*53
$GPGSA,A,3,09,03,19,17,23,02,01,,,,,,1.35,1.09,0.80*03
$GPGSV,4,1,13,23,84,061,27,09,63,238,36,03,49,093,30,06,46,301,*70
$GPGSV,4,2,13,22,29,103,,19,25,259,20,17,16,235,25,44,15,117,*76
$GPGSV,4,3,13,01,14,156,25,07,13,179,,02,11,320,26,31,10,035,*75

$GPGSV,4,4,13,26,04,071,*4D
$GPRMC,093259.000,A,4628.1394,N,01119.9422,E,0.45,97.48,231218,,,A*50
$GPVTG,97.48,T,,M,0.45,N,0.83,K,A*05

$GPGGA,093300.000,4628.1394,N,01119.9424,E,1,7,1.09,256.3,M,47.6,M,,*59
$GPGSA,A,
3,09,03,19,17,23,02,01,,,,,,1.35,1.09,0.80*03
$GPGSV,4,1,13,23,84,061,27,09,63,238,36,03,49,093,30,06,46,301,*70
$GPGSV,4,2,13,22,29,103,,19,25,259,20,17,16,235,25,44,15,117,*76
$GPGSV,4,3,13,01,14,156,25,07,13,179,,02,11,320,26,31,10,035,*75
$GPGSV,4,4,13,26,04,071,*4D
$GPRMC,093300.000,A,4628.1394,N,01119.9424,E,0.43,97.
48,231218,,,A*5D
$GPVTG,97.48,T,,M,0.43,N,0.80,K,A*00

$GPGGA,093301.000,4628.1393,N,01119.9425,E,1,7,1.09,256.4,M,47.6,M,,*59
$GPGSA,A,3,09,03,19,17,23,02,01,,,,,,1.35,1.09,0.80*03
$GPGSV,4,1,13,23,84,061,28,09,63,238,36,03,49,093,30,06,46,301,*7F
$GPGSV,4,2,13,22,29,103,,19,25,259,20,17,16,235,25,44,15,117,*76
$GPGSV,4,3,13,01,14,156,25,07,13,179,,02,11,320,26,31,10,035,*75

$GPGSV,4,4,13,26,04,071,*4D
$GPRMC,093301.000,A,4628.1393,N,01119.9425,E,0.43,97.48,231218,,,A*5A
$GPVTG,97.48,T,,M,0.43,N,0.80,K,A*00

$GPGGA,093302.000,4628.1392,N,01119.9427,E,1,7,1.09,256.4,M,47.6,M,,*59
$GPGSA,A,3,09,03,19,17,23,02,01,,,,,,1.35,1.09,0.80*03
$GPGSV,4,1,13,23,84,061,28,09,63,238,36,03,49,093,30,06,46,301,*7F
$GPGSV,4,2,13,22,29,103,,19,25,259,20,17,16,235,25,01,14,156,26*77
$GPGSV,4,3,13,07,13,179,,02,11,320,26,31,10,035,,26,04,071,*72

$GPGSV,4,4,13,34,,,*7C
$GPRMC,093302.000,A,4628.1392,N,01119.9427,E,0.55,97.48,231218,,,A*5D
$GPVTG,97.48,T,,M,0.55,N,1.02,K,A*0C

$GPGGA,093303.000,4628.1391,N,01119.9429,E,1,7,1.09,256.5,M,47.6,M,,*54
$GPGSA,A,3,09,03,19,17,23,02,01,,,,,,1.35,1.09,0.80*03
$GPGSV,
4,1,13,23,84,061,28,09,63,238,36,03,49,093,30,06,46,301,*7F
$GPGSV,4,2,13,22,29,103,,19,25,259,20,17,16,235,24,01,14,156,26*76
$GPGSV,4,3,13,07,13,179,,02,11,320,26,31,10,035,,26,04,071,*72
$GPGSV,4,4,13,34,,,*7C
$GPRMC,093303.000,A,4628.1391,N,01119.9429,E,0.39,97.48,231218,,,A*5B
$GPVTG,97.48,T,,M,0.39,N,0.71,K,A*03

$GPGGA,093304.000,4628.1391,N,01119.9430,E,1,8,1.02,256.5,M,47.6,M,,*5F
$GPGSA,A,3,09,03,19,17,07,23,02,01,,,,,1.29,1.02,0.79*04
$GPGSV,4,1,13,23,84,061,28,09,63,238,36,03,49,093,30,06,46,301,*7F
$GPGSV,4,2,13,22,29,103,,19,25,259,21,17,16,235,24,01,14,156,26*77
$GPGSV,4,3,13,07,13,179,18,02,11,320,26,31,10,035,,26,04,071,*
7B
$GPGSV,4,4,13,38,,,*70
$GPRMC,093304.000,A,4628.1391,N,01119.9430,E,0.27,97.48,231218,,,A*5B
$GPVTG,97.48,T,,M,0.27,N,0.49,K,A*07

$GPGGA,093305.000,4628.1390,N,01119.9431,E,1,8,1.02,256.6,M,47.6,M,,*5D
$GPGSA,A,3,09,03,19,17,07,23,02,01,,,,,1.29,1.02,0.79*04
$GPGSV,4,1,13,23,84,061,28,09,63,238,36,03,49,093,30,06,46,301,*7F
$GPGSV,4,2,13,22,29,103,,19,25,259,21,17,16,235,23,01,14,156,26*70
$GPGSV,4,3,13,07,13,179,18,02,11,320,27,31,10,035,,26,04,071,*
7A
$GPGSV,4,4,13,38,,,*70
$GPRMC,093305.000,A,4628.1390,N,01119.9431,E,0.26,97.48,231218,,,A*5B
$GPVTG,97.48,T,,M,0.26,N,0.48,K,A*07

$GPGGA,093306.000,4628.1390,N,01119.9433,E,1,8,1.02,256.6,M,47.6,M,,*5C
$GPGSA,A,3,09,03,19,17,07,23,02,01,,,,,1.29,1.02,0.79*04
$GPGSV,4,1,13,23,84,061,28,09,63,238,36,03,49,093,30,06,46,30
1,*7F
$GPGSV,4,2,13,22,29,104,,19,25,259,21,17,16,235,22,01,14,156,25*75
$GPGSV,4,3,13,07,13,179,17,02,11,320,27,31,10,035,,26,04,071,*75
$GPGSV,4,4,13,40,,,*7F
$GPRMC,093306.000,A,4628.1390,N,01119.9433,E,0.27,97.48,231218,,,A*5B
$GPVTG,97.48,T,,M,0.27,N,0.50,K,A*0F

$GPGGA,093307.000,4628.1390,N,01119.9434,E,1,8,1.01,256.7,M,47.6,M,,*58
$GPGSA,A,3,09,03,19,17,07,23,02,01,,,,,1.29,1.01,0.79*07
$GPGSV,4,1,13,23,84,061,28,09,63,238,35,03,49,093,30,06,46,301,*7C
$GPGSV,4,2,13,22,29,104,,19,25,259,22,17,16,235,22,01,14,156,25*76
$GPGSV,4,3,13,07,13,179,17,02,11,320,27,31,10,035,,26,04,071,*
75
$GPGSV,4,4,13,40,,,*7F
$GPRMC,093307.000,A,4628.1390,N,01119.9434,E,0.40,97.48,231218,,,A*5C
$GPVTG,97.48,T,,M,0.40,N,0.73,K,A*0F

$GPGGA,093308.000,4628.1390,N,01119.9435,E,1,8,1.02,256.7,M,47.6,M,,*55
$GPGSA,A,3,09,03,19,17,07,23,02,01,,,,,1.29,1.02,0.79*04
$GPGSV,4,1,13,23,84,061,28,09,63,238,35,03,49,093,30,06,46,301,*7C
$GPGSV,4,2,13,22,29,104,,19,25,259,22,17,16,235,22,01,14,156,24*77
$GPGSV,4,3,13,07,13,179,18,02,11,320,27,31,10,035,,26,04,071,*
7A
$GPGSV,4,4,13,41,,,*7E
$GPRMC,093308.000,A,4628.1390,N,01119.9435,E,0.35,97.48,231218,,,A*50
$GPVTG,97.48,T,,M,0.35,N,0.65,K,A*0A

$GPGGA,093309.000,4628.1389,N,01119.9436,E,1,8,1.02,256.8,M,47.6,M,,*50
$GPGSA,A,3,09,03,19,17,07,23,02,01,,,,,1.29,1.02,0.79*04
$GPGSV,4,1,13,23,84,061,28,09,63,238,35,03,49,093,30,06,46,301,*7C
$GPGSV,4,2,13,22,29,104,,19,25,259,22,17,16,2
35,22,01,14,156,24*77
$GPGSV,4,3,13,07,13,179,18,02,11,320,27,31,10,035,,26,04,071,*7A
$GPGSV,4,4,13,41,,,*7E
$GPRMC,093309.000,A,4628.1389,N,01119.9436,E,0.40,97.48,231218,,,A*58
$GPVTG,97.48,T,,M,0.40,N,0.74,K,A*08

$GPGGA,093310.000,4628.1389,N,01119.9438,E,1,8,1.02,256.8,M,47.6,M,,*56
$GPGSA,A,3,09,03,19,17,07,23,02,01,,,,,1.29,1.02,0.79*04
$GPGSV,4,1,13,23,84,061,28,09,63,238,35,03,49,093,29,06,46,301,*74
$GPGSV,4,2,13,22,29,104,,19,25,259,23,17,16,235,22,01,14,156,24*76
$GPGSV,4,3,13,07,13,179,19,02,11,320,27,31,10,035,,26,04,071,*
7B
$GPGSV,4,4,13,43,,,*7C
$GPRMC,093310.000,A,4628.1389,N,01119.9438,E,0.20,97.48,231218,,,A*58
$GPVTG,97.48,T,,M,0.20,N,0.36,K,A*08

$GPGGA,093311.000,4628.1388,N,01119.9438,E,1,8,1.02,256.9,M,47.6,M,,*57
$GPGSA,A,3,09,03,19,17,07,23,02,01,,,,,1.29,1.02,0.79*04
$GPGSV,4,1,13,23,84,061,28,09,63,238,35,03,49,093,29,06,46,301,*74
$GPGSV,4,2,13,22,29,104,,19,25,259,23,17,16,235,21,01,14,156,23*72
$GPGSV,4,3,13,07,13,179,20,02,11,320,27,31,10,035,,26,04,071,*
71
$GPGSV,4,4,13,43,,,*7C
$GPRMC,093311.000,A,4628.1388,N,01119.9438,E,0.30,97.48,231218,,,A*59
$GPVTG,97.48,T,,M,0.30,N,0.55,K,A*0C

$GPGGA,093312.000,4628.1388,N,01119.9439,E,1,8,1.02,256.9,M,47.6,M,,*55
$GPGSA,A,3,09,03,19,17,07,23,02,01,,,,,1.29,1.02,0.79*04
$GPGSV,4,1,13,23,84,061,28,09,63,238,35,03,49,093,29,06,46,301,*74
$GPGSV,4,2,13,22,29,104,,19,25,259,23,17,16,235,21,01,14,156,23*72
$GPGSV,4,3,13,07,13,179,20,02
,11,320,27,31,10,035,,26,04,071,*71
$GPGSV,4,4,13,45,,,*7A
$GPRMC,093312.000,A,4628.1388,N,01119.9439,E,0.05,97.48,231218,,,A*5D
$GPVTG,97.48,T,,M,0.05,N,0.10,K,A*0B

$GPGGA,093313.000,4628.1388,N,01119.9439,E,1,8,1.02,257.0,M,47.6,M,,*5C
$GPGSA,A,3,09,03,19,17,07,23,02,01,,,,,1.29,1.02,0.79*04
$GPGSV,4,1,13,23,84,061,28,09,63,238,35,03,49,093,29,06,46,301,*74
$GPGSV,4,2,13,22,29,104,,19,25,259,23,17,16,235,21,01,14,156,23*72
$GPGSV,4,3,13,07,13,179,20,02,11,320,27,31,10,035,,26,04,071,*
71
$GPGSV,4,4,13,45,,,*7A
$GPRMC,093313.000,A,4628.1388,N,01119.9439,E,0.17,97.48,231218,,,A*5F
$GPVTG,97.48,T,,M,0.17,N,0.32,K,A*08

$GPGGA,093314.000,4628.1388,N,01119.9439,E,1,8,1.02,257.0,M,47.6,M,,*5B
$GPGSA,A,3,09,03,19,17,07,23,02,01,,,,,1.29,1.02,0.79*04
$GPGSV,4,1,13,23,84,061,28,09,63,238,35,03,49,093,28,06,46,301,*75
$GPGSV,4,2,13,22,29,104,,19,25,259,24,17,16,235,21,01,14,156,23*75
$GPGSV,4,3,13,07,13,179,21,02,11,320,27,31,10,035,,26,04,071,*
70
$GPGSV,4,4,13,46,,,*79
$GPRMC,093314.000,A,4628.1388,N,01119.9439,E,0.23,97.48,231218,,,A*5F
$GPVTG,97.48,T,,M,0.23,N,0.43,K,A*09

$GPGGA,093315.000,4628.1388,N,01119.9440,E,1,8,1.07,257.0,M,47.6,M,,*51
$GPGSA,M,3,09,03,19,17,07,23,02,01,,,,,1.68,1.07,1.30*04
$GPGSV,4,1,13,23,84,061,28,09,63,238,35,03,49,093,28,06,46,301,*75
$GPGSV,4,2,13,22,29,104,,19,25,259,24,17,16,235,20,01,14,156,23*74
$GPGSV,4,3,13,07,13,179,22,02,11,320,27,31,10,035,,26,04,071,*
73
$GPGSV,4,4,13,4
6,,,*79
$GPRMC,093315.000,A,4628.1388,N,01119.9440,E,0.08,97.48,231218,,,A*59
$GPVTG,97.48,T,,M,0.08,N,0.14,K,A*02

$GPGGA,093316.000,4628.1388,N,01119.9439,E,1,8,1.02,257.1,M,47.6,M,,*58
$GPGSA,A,3,09,03,19,17,07,23,02,01,,,,,1.29,1.02,0.79*04
$GPGSV,4,1,13,23,84,061,27,09,63,238,35,03,49,093,28,06,46,301,*7A
$GPGSV,4,2,13,22,29,104,,19,25,259,25,17,16,235,20,01,14,156,23*75
$GPGSV,4,3,13,07,13,179,22,02,11,320,27,31,10,035,,26,04,071,*
73
$GPGSV,4,4,13,49,,,*76
$GPRMC,093316.000,A,4628.1388,N,01119.9439,E,0.06,97.48,231218,,,A*5A
$GPVTG,97.48,T,,M,0.06,N,0.12,K,A*0A

$GPGGA,093317.000,4628.1389,N,01119.9439,E,1,8,1.02,257.1,M,47.6,M,,*58
$GPGSA,A,3,09,03,19,17,07,23,02,01,,,,,1.29,1.02,0.79*04
$GPGSV,4,1,13,23,84,061,26,09,63,238,35,03,49,093,28,06,46,301,*7B
$GPGSV,4,2,13,22,29,104,,19,25,259,25,17,16,235,20,07,13,179,22*78
$GPGSV,4,3,13,01,13,156,23,02,11,320,27,31,10,035,,26,04,071,*
79
$GPGSV,4,4,13,49,,,*76
$GPRMC,093317.000,A,4628.1389,N,01119.9439,E,0.08,97.48,231218,,,A*54
$GPVTG,97.48,T,,M,0.08,N,0.15,K,A*03

$GPGGA,093318.000,4628.1389,N,01119.9439,E,1,8,1.02,257.2,M,47.6,M,,*54
$GPGSA,A,3,09,03,19,17,07,23,02,01,,,,,1.29,1.02,0.79*04
$GPGSV,4,1,13,23,84,061,26,09,63,238,35,03,49,093,27,06,46,301,*74
$GPGSV,4,2,13,37,35,166,,22,29,104,,19,25,259,26,17,16,235,20*72
$GPGSV,4,3,13,07,13,179,22,01,13,156,22,02,11,320,27,31,10,035,*
74
$GPGSV,4,4,13,26,04,071,*4D
$GPRMC,093318.000,A,4628.1389,N,01119.
9439,E,0.24,97.48,231218,,,A*55
$GPVTG,97.48,T,,M,0.24,N,0.44,K,A*09

$GPGGA,093319.000,4628.1389,N,01119.9440,E,1,8,1.02,257.2,M,47.6,M,,*5B
$GPGSA,A,3,09,03,19,17,07,23,02,01,,,,,1.29,1.02,0.79*04
$GPGSV,4,1,13,23,84,061,26,09,63,238,35,03,49,093,27,06,46,301,*74
$GPGSV,4,2,13,37,35,166,,22,29,104,,19,25,259,26,17,16,235,19*78
$GPGSV,4,3,13,07,13,179,22,01,13,156,22,02,11,320,28,31,10,035,*
7B
$GPGSV,4,4,13,26,04,071,*4D
$GPRMC,093319.000,A,4628.1389,N,01119.9440,E,0.30,97.48,231218,,,A*5F
$GPVTG,97.48,T,,M,0.30,N,0.55,K,A*0C

$GPGGA,093320.000,4628.1390,N,01119.9441,E,1,8,1.01,257.3,M,47.6,M,,*5A
$GPGSA,A,3,09,03,19,17,07,23,02,01,,,,,1.29,1.01,0.79*07
$GPGSV,4,1,13,23,84,061,26,09,63,238,35,03,49,093,27,06,46,301,*74
$GPGSV,4,2,13,37,35,166,,22,29,104,,19,25,259,26,17,16,235,18*79
$GPGSV,4,3,13,07,13,179,23,01,13,156,21,02,11,320,28,31,10,035,*
79
$GPGSV,4,4,13,26,04,071,*4D
$GPRMC,093320.000,A,4628.1390,N,01119.9441,E,0.43,97.48,231218,,,A*58
$GPVTG,97.48,T,,M,0.43,N,0.80,K,A*00

$GPGGA,093321.000,4628.1390,N,01119.9443,E,1,8,1.02,257.3,M,47.6,M,,*5A
$GPGSA,A,3,09,03,19,17,07,23,02,01,,,,,1.29,1.02,0.79*04
$GPGSV,4,1,13,23,84,061,26,09,63,238,35,03,49,093,27,06,46,301,*74
$GPGSV,4,2,13,39,34,161,,22,29,104,,19,25,259,26,17,16,235,18*71
$GPGSV,4,3,13,07,13,179,24,01,13,156,22,02,11,320,28,31,10,035,*
7D
$GPGSV,4,4,13,26,04,071,*4D
$GPRMC,093321.000,A,4628.1390,N,01119.9443,E,0.49,97.48,231218,,,A*51
$GPV
TG,97.48,T,,M,0.49,N,0.91,K,A*0A

$GPGGA,093322.000,4628.1390,N,01119.9445,E,1,8,1.02,257.4,M,47.6,M,,*58
$GPGSA,A,3,09,03,19,17,07,23,02,01,,,,,1.29,1.02,0.79*04
$GPGSV,4,1,13,23,84,061,25,09,63,238,35,03,49,093,27,06,46,301,*77
$GPGSV,4,2,13,39,34,161,,22,29,104,,19,25,259,26,17,16,235,18*71
$GPGSV,4,3,13,07,13,179,24,01,13,156,22,02,11,320,28,31,10,035,*
7D
$GPGSV,4,4,13,26,04,071,*4D
$GPRMC,093322.000,A,4628.1390,N,01119.9445,E,0.43,97.48,231218,,,A*5E
$GPVTG,97.48,T,,M,0.43,N,0.80,K,A*00

$GPGGA,093323.000,4628.1391,N,01119.9447,E,1,8,1.02,257.4,M,47.6,M,,*5A
$GPGSA,A,3,09,03,19,17,07,23,02,01,,,,,1.29,1.02,0.79*04
$GPGSV,4,1,13,23,84,061,25,09,63,238,35,03,49,093,27,06,46,301,*77
$GPGSV,4,2,13,39,34,161,,22,29,104,,19,25,259,26,17,16,235,18*71
$GPGSV,4,3,13,07,13,179,24,01,13,156,22,02,11,320,28,31,10,035,*
7D
$GPGSV,4,4,13,26,04,071,*4D
$GPRMC,093323.000,A,4628.1391,N,01119.9447,E,0.45,97.48,231218,,,A*5A
$GPVTG,97.48,T,,M,0.45,N,0.83,K,A*05

$GPGGA,093324.000,4628.1392,N,01119.9448,E,1,8,1.01,257.5,M,47.6,M,,*53
$GPGSA,A,3,09,03,19,17,07,23,02,01,,,,,1.29,1.01,0.79*07
$GPGSV,4,1,13,23,84,061,25,09,63,238,35,03,49,093,27,06,46,301,*77
$GPGSV,4,2,13,36,33,153,,22,29,104,,19,25,259,26,17,16,235,18*78
$GPGSV,4,3,13,07,13,179,24,01,13,156,22,02,11,320,28,31,10,035,*
7D
$GPGSV,4,4,13,26,04,071,*4D
$GPRMC,093324.000,A,4628.1392,N,01119.9448,E,0.43,97.48,231218,,,A*57
$GPVTG,97.48,T,,M,0.43,N,0.80,K,A*00

$GP
GGA,093325.000,4628.1392,N,01119.9450,E,1,8,1.02,257.5,M,47.6,M,,*58
$GPGSA,A,3,09,03,19,17,07,23,02,01,,,,,1.29,1.02,0.79*04
$GPGSV,4,1,13,23,84,061,25,09,63,238,35,03,49,093,27,06,46,301,*77
$GPGSV,4,2,13,36,33,153,,22,29,104,,19,25,259,26,17,16,235,18*78
$GPGSV,4,3,13,07,13,179,25,01,13,156,22,02,11,320,28,31,10,035,*7C

$GPGSV,4,4,13,26,04,071,*4D
$GPRMC,093325.000,A,4628.1392,N,01119.9450,E,0.44,97.48,231218,,,A*58
$GPVTG,97.48,T,,M,0.44,N,0.82,K,A*05

$GPGGA,093326.000,4628.1393,N,01119.9452,E,1,8,1.01,257.6,M,47.6,M,,*58
$GPGSA,A,3,09,03,19,17,07,23,02,01,,,,,1.29,1.01,0.79*07
$GPGSV,4,1,13,23,84,061,25,09,63,238,35,03,49,093,27,06,46,301,*77
$GPGSV,4,2,13,33,30,214,,22,29,104,,19,25,259,26,17,16,235,18*7E
$GPGSV,4,3,13,07,13,179,25,01,13,156,22,02,11,320,28,31,10,035,*
7C
$GPGSV,4,4,13,26,04,071,*4D
$GPRMC,093326.000,A,4628.1393,N,01119.9452,E,0.43,97.48,231218,,,A*5F
$GPVTG,97.48,T,,M,0.43,N,0.80,K,A*00

$GPGGA,093327.000,4628.1393,N,01119.9453,E,1,8,1.01,257.6,M,47.6,M,,*58
$GPGSA,A,3,09,03,19,17,07,23,02,01,,,,,1.29,1.01,0.79*07
$GPGSV,4,1,13,23,84,061,25,09,63,238,35,03,49,093,27,06,46,301,*77
$GPGSV,4,2,13,33,30,214,,22,29,104,,19,25,259,25,17,16,235,17*72
$GPGSV,4,3,13,07,13,179,25,01,13,156,22,02,11,320,28,31,10,035,*
7C
$GPGSV,4,4,13,26,04,071,*4D
$GPRMC,093327.000,A,4628.1393,N,01119.9453,E,0.41,97.48,231218,,,A*5D
$GPVTG,97.48,T,,M,0.41,N,0.76,K,A*0B

$GPGGA,093328.000,4628.1394,N,01119.9455
,E,1,8,1.02,257.6,M,47.6,M,,*55
$GPGSA,A,3,09,03,19,17,07,23,02,01,,,,,1.29,1.02,0.79*04
$GPGSV,4,1,13,23,84,061,25,09,63,238,36,03,49,093,27,06,46,301,*74
$GPGSV,4,2,13,33,30,214,,22,29,104,,19,25,259,25,17,16,235,17*72
$GPGSV,4,3,13,07,13,179,25,01,13,156,22,02,11,320,28,31,10,035,*7C
$GPGSV,4,4,13,26,04,071,*4D
$GPRMC,
093328.000,A,4628.1394,N,01119.9455,E,0.37,97.48,231218,,,A*52
$GPVTG,97.48,T,,M,0.37,N,0.69,K,A*04

$GPGGA,093329.000,4628.1395,N,01119.9456,E,1,8,1.02,257.7,M,47.6,M,,*57
$GPGSA,A,3,09,03,19,17,07,23,02,01,,,,,1.29,1.02,0.79*04
$GPGSV,4,1,13,23,84,061,25,09,63,238,36,03,49,093,28,06,46,301,*7B
$GPGSV,4,2,13,22,29,104,,19,25,259,25,17,16,235,17,44,15,117,*75
$GPGSV,4,3,13,07,13,179,25,01,13,156,22,02,11,320,28,31,10,035,*
7C
$GPGSV,4,4,13,26,04,071,*4D
$GPRMC,093329.000,A,4628.1395,N,01119.9456,E,0.27,97.48,231218,,,A*50
$GPVTG,97.48,T,,M,0.27,N,0.50,K,A*0F

$GPGGA,093330.000,4628.1395,N,01119.9456,E,1,8,1.01,257.7,M,47.6,M,,*5C
$GPGSA,A,3,09,03,19,17,07,23,02,01,,,,,1.29,1.01,0.79*07
$GPGSV,4,1,13,23,84,061,25,09,63,238,36,03,49,093,28,06,46,301,*7B
$GPGSV,4,2,13,22,29,104,,19,25,259,25,17,16,235,16,44,15,117,*74
$GPGSV,4,3,13,07,13,179,25,01,13,156,22,02,11,320,28,31,10,035,*
7C
$GPGSV,4,4,13,26,04,071,*4D
$GPRMC,093330.000,A,4628.1395,N,01119.9456,E,0.19,97.48,231218,,,A*55
$GPVTG,97.48,T,,M,0.19,N,0.34,K,A*00

$GPGGA,093331.000,4628.1396,N,01119.9457,E,1,9,0.99,257.7,M,47.6,M,,*5E
$GPG
SA,A,3,09,03,19,06,17,07,23,02,01,,,,1.26,0.99,0.79*0E
$GPGSV,4,1,13,23,84,061,25,09,63,238,36,03,49,093,28,06,46,301,24*7D
$GPGSV,4,2,13,22,29,104,,19,25,259,24,17,16,235,16,44,15,117,*75
$GPGSV,4,3,13,07,13,179,25,01,13,156,21,02,11,320,28,31,10,035,*7F
$GPGSV,4,4,13,26,04,071,*4D
$GPRMC,093331.000,A,4628.1396,N,01119.94
57,E,0.39,97.48,231218,,,A*54
$GPVTG,97.48,T,,M,0.39,N,0.72,K,A*00

$GPGGA,093332.000,4628.1397,N,01119.9458,E,1,8,1.01,257.8,M,47.6,M,,*5D
$GPGSA,A,3,09,03,19,17,07,23,02,01,,,,,1.29,1.01,0.79*07
$GPGSV,4,1,13,23,84,061,24,09,63,238,36,03,49,093,28,06,46,301,*7A
$GPGSV,4,2,13,22,29,104,,19,25,259,24,17,16,235,16,07,13,179,25*7B
$GPGSV,4,3,13,01,13,156,21,02,11,320,28,31,10,035,,26,04,071,*
74
$GPGSV,4,4,13,34,,,*7C
$GPRMC,093332.000,A,4628.1397,N,01119.9458,E,0.24,97.48,231218,,,A*55
$GPVTG,97.48,T,,M,0.24,N,0.44,K,A*09

$GPGGA,093333.000,4628.1398,N,01119.9458,E,1,8,1.01,257.8,M,47.6,M,,*53
$GPGSA,A,3,09,03,19,17,07,23,02,01,,,,,1.29,1.01,0.79*07
$GPGSV,4,1,13,23,84,061,24,09,63,238,36,03,49,093,28,06,46,301,*7A
$GPGSV,4,2,13,22,29,104,,19,25,259,24,17,16,235,15,07,13,179,25*78
$GPGSV,4,3,13,01,13,156,21,02,11,320,28,31,10,035,,26,04,071,*
74
$GPGSV,4,4,13,34,,,*7C
$GPRMC,093333.000,A,4628.1398,N,01119.9458,E,0.35,97.48,231218,,,A*5B
$GPVTG,97.48,T,,M,0.35,N,0.65,K,A*0A

$GPGGA,093334.000,4628.1398,N,01119.9459,E,1,8,1.01,257.9,M,47.6,M,,*54
$GPGSA,A,3,09,03,19,17,07,23,02,01,,,,,1.29,1.0
1,0.79*07
$GPGSV,4,1,13,23,84,061,24,09,63,238,37,03,49,093,28,06,46,301,*7B
$GPGSV,4,2,13,22,29,104,,19,25,259,24,17,16,235,15,07,13,179,25*78
$GPGSV,4,3,13,01,13,156,20,02,11,320,28,31,10,035,,26,04,071,*75
$GPGSV,4,4,13,38,,,*70
$GPRMC,093334.000,A,4628.1398,N,01119.9459,E,0.35,97.48,231218,,,A*5D
$GPVTG,97.48,T,,M,0.3
5,N,0.64,K,A*0B

$GPGGA,093335.000,4628.1400,N,01119.9459,E,1,8,1.07,257.9,M,47.6,M,,*55
$GPGSA,A,3,09,03,19,17,07,23,02,01,,,,,1.68,1.07,1.30*08
$GPGSV,4,1,13,23,84,061,24,09,63,238,37,03,49,093,27,06,46,301,*74
$GPGSV,4,2,13,22,29,104,,19,24,259,24,17,16,235,15,07,13,179,25*79
$GPGSV,4,3,13,01,13,156,20,02,11,320,28,31,10,035,,26,04,071,*
75
$GPGSV,4,4,13,38,,,*70
$GPRMC,093335.000,A,4628.1400,N,01119.9459,E,0.46,97.48,231218,,,A*5E
$GPVTG,97.48,T,,M,0.46,N,0.85,K,A*00

$GPGGA,093336.000,4628.1401,N,01119.9460,E,1,8,1.01,257.9,M,47.6,M,,*5B
$GPGSA,A,3,09,03,19,17,07,23,02,01,,,,,1.29,1.01,0.79*07
$GPGSV,4,1,13,23,84,061,24,09,63,238,37,03,49,093,27,06,46,301,*74
$GPGSV,4,2,13,22,29,104,,19,24,259,24,17,16,235,16,07,13,179,25*7A
$GPGSV,4,3,13,01,13,156,20,02,11,320,28,31,10,035,,26,04,071,*
75
$GPGSV,4,4,13,40,,,*7F
$GPRMC,093336.000,A,4628.1401,N,01119.9460,E,0.33,97.48,231218,,,A*54
$GPVTG,97.48,T,,M,0.33,N,0.61,K,A*08

$GPGGA,093337.000,4628.1402,N,01119.9460,E,1,9,0.99,258.0,M,47.6,M,,*5E
$GPGSA,A,3,09,03,19,06,17,07,23,02,01,,,,1.26,0.99,0.79*0E
$GPGSV,4,1,13,23,84,061,25,09,63,238,37
,03,49,093,27,06,46,301,26*71
$GPGSV,4,2,13,22,29,104,,19,24,259,24,17,16,235,16,07,13,179,25*7A
$GPGSV,4,3,13,01,13,156,20,02,11,320,28,31,10,035,,26,04,071,*75
$GPGSV,4,4,13,40,,,*7F
$GPRMC,093337.000,A,4628.1402,N,01119.9460,E,0.35,97.48,231218,,,A*50
$GPVTG,97.48,T,,M,0.35,N,0.66,K,A*09

$GPGGA,093338.000,4628.1403,N,01119.9461,E,1,8,1.07,258.0,M,47.6,M,,*56
$GPGSA,A,3,09,03,19,17,07,23,02,01,,,,,1.68,1.07,1.30*08
$GPGSV,4,1,13,23,84,061,25,09,63,238,37,03,49,093,27,06,46,301,*75
$GPGSV,4,2,13,22,29,104,,19,24,259,24,17,16,235,16,07,13,179,25*7A
$GPGSV,4,3,13,01,13,156,20,02,11,320,28,31,10,035,,26,04,071,*
75
$GPGSV,4,4,13,41,,,*7E
$GPRMC,093338.000,A,4628.1403,N,01119.9461,E,0.23,97.48,231218,,,A*58
$GPVTG,97.48,T,,M,0.23,N,0.43,K,A*09

$GPGGA,093339.000,4628.1403,N,01119.9462,E,1,8,1.01,258.1,M,47.6,M,,*53
$GPGSA,A,3,09,03,19,17,07,23,02,01,,,,,1.29,1.01,0.79*07
$GPGSV,4,1,13,23,84,060,25,09,63,238,37,03,49,093,28,06,46,301,*7B
$GPGSV,4,2,13,22,29,104,,19,24,259,24,17,16,235,16,07,13,179,26*79
$GPGSV,4,3,13,01,13,156,20,02,11,320,28,31,10,035,,26,04,071,*
75
$GPGSV,4,4,13,41,,,*7E
$GPRMC,093339.000,A,4628.1403,N,01119.9462,E,0.35,97.48,231218,,,A*5D
$GPVTG,97.48,T,,M,0.35,N,0.65,K,A*0A

$GPGGA,093340.000,4628.1404,N,01119.9462,E,1,8,1.07,258.1,M,47.6,M,,*5C
$GPGSA,A,3,09,03,19,17,07,23,02,01,,,,,1.68,1.07,1.30*08
$GPGSV,4,1,13,23,84,060,25,09,63,238,38,03,49,093,28,06,46,301,*74
$GPGSV,4,2,13,22,29,1
04,,19,24,259,24,17,16,235,16,07,13,179,26*79
$GPGSV,4,3,13,01,13,156,19,02,11,320,28,31,10,035,,26,04,071,*7F
$GPGSV,4,4,13,43,,,*7C
$GPRMC,093340.000,A,4628.1404,N,01119.9462,E,0.24,97.48,231218,,,A*54
$GPVTG,97.48,T,,M,0.24,N,0.45,K,A*08

$GPGGA,093341.000,4628.1405,N,01119.9462,E,1,8,1.01,258.2,M,47.6,M,,*59
$GPGSA,A,3,09,03,19,17,07,23,02,01,,,,,1.29,1.01,0.79*07
$GPGSV,4,1,13,23,84,060,25,09,63,238,38,03,49,093,28,06,46,301,*74
$GPGSV,4,2,13,22,29,104,,19,24,259,23,17,16,235,16,07,13,179,26*7E
$GPGSV,4,3,13,01,13,156,18,02,11,320,28,31,10,035,,26,04,071,*
7E
$GPGSV,4,4,13,43,,,*7C
$GPRMC,093341.000,A,4628.1405,N,01119.9462,E,0.27,97.48,231218,,,A*57
$GPVTG,97.48,T,,M,0.27,N,0.50,K,A*0F

$GPGGA,093342.000,4628.1406,N,01119.9462,E,1,8,1.07,258.3,M,47.6,M,,*5E
