$GPGGA,173034.354,4628.2711,N,01119.1846,E,1,04,2.1,199.0,M,47.6,M,,0000*51
$GPGLL,4628.2711,N,01119.1846,E,173034.354,A*3A
$GPGSA,A,3,10,09,30,05,,,,,,,,,2.3,2.1,1.0*3F
$GPGSV,3,1,12,30,76,182,47,10,62,168,37,13,52,286,,05,49,300,47*7D
$GPGSV,3,2,12,09,35,085,44,23,76,027,,07,62,059,,04,11,207,*72
$GPGSV,3,3,12,02,09,325,,01,07,082,,28,05,168,,24,00,189,*7F
$GPRMC,173034.354,A,4628.2711,N,01119.1846,E,0.14,183.12,091214,,*0E
$GPVTG,183.12,T,,M,0.14,N,0.3,K*6F
$GPGGA,173035.354,4628.2650,N,01119.1801,E,1,04,2.1,173.3,M,47.6,M,,0000*50
$GPGLL,4628.2650,N,01119.1801,E,173035.354,A*3C
$GPGSA,A,3,10,09,30,05,,,,,,,,,2.3,2.1,1.0*3F
$GPGSV,3,1,12,30,76,182,45,10,62,168,37,13,52,286,,05,49,300,46*7E
$GPGSV,3,2,12,09,35,085,43,23,76,027,,07,62,059,,04,11,207,*75
$GPGSV,3,3,12,02,09,325,,01,07,082,,28,05,168,,24,00,189,*7F
$GPRMC,173035.354,A,4628.2650,N,01119.1801,E,0.23,99.86,091214,,*3B
$GPVTG,99.86,T,,M,0.23,N,0.4,K*5B
$GPZDA,173036.000,09,12,2014,,*5B
$GPGGA,173036.000,4628.2725,N,01119.1863,E,1,05,2.0,201.4,M,47.6,M,,0000*57
$GPGLL,4628.2725,N,01119.1863,E,173036.000,A*3A
$GPGSA,A,3,10,09,30,05,13,,,,,,,,2.2,2.0,1.0*3D
$GPGSV,3,1,12,30,76,182,47,10,62,168,39,13,52,286,51,05,49,300,49*79
$GPGSV,3,2,12,09,35,085,45,23,76,027,,07,62,059,42,04,11,207,*75
$GPGSV,3,3,12,02,09,325,,01,07,082,,28,05,168,,24,00,189,*7F
$GPRMC,173036.000,A,4628.2725,N,01119.1863,E,0.18,180.64,091214,,*00
$GPVTG,180.64,T,,M,0.18,N,0.3,K*61
$GPZDA,173037.000,09,12,2014,,*5A
$GPGGA,173037.000,4628.2772,N,01119.1903,E,1,05,2.0,221.4,M,47.6,M,,0000*51
$GPGLL,4628.2772,N,01119.1903,E,173037.000,A*3E
$GPGSA,A,3,10,09,30,05,13,,,,,,,,2.2,2.0,1.0*3D
$GPGSV,3,1,12,30,76,182,47,10,62,168,39,13,52,286,50,05,49,300,48*79
$GPGSV,3,2,12,09,35,085,45,23,76,027,,07,62,059,43,04,11,207,*74
$GPGSV,3,3,12,02,09,325,,01,07,082,,28,05,168,,24,00,189,*7F
$GPRMC,173037.000,A,4628.2772,N,01119.1903,E,0.14,181.30,091214,,*08
$GPVTG,181.30,T,,M,0.14,N,0.3,K*6D
$GPZDA,173038.000,09,12,2014,,*55
$GPGGA,173038.000,4628.2787,N,01119.1913,E,1,05,2.0,228.2,M,47.6,M,,0000*5A
$GPGLL,4628.2787,N,01119.1913,E,173038.000,A*3A
$GPGSA,A,3,10,09,30,05,13,,,,,,,,2.2,2.0,1.0*3D
$GPGSV,3,1,12,30,76,182,47,10,62,168,39,13,52,286,50,05,49,300,48*79
$GPGSV,3,2,12,09,35,085,45,23,76,027,,07,62,059,43,04,11,207,*74
$GPGSV,3,3,12,02,09,325,,01,07,082,,28,05,168,,24,00,189,*7F
$GPRMC,173038.000,A,4628.2787,N,01119.1913,E,0.13,175.99,091214,,*03
$GPVTG,175.99,T,,M,0.13,N,0.2,K*63
$GPZDA,173039.000,09,12,2014,,*54
$GPGGA,173039.000,4628.2796,N,01119.1917,E,1,05,2.0,232.0,M,47.6,M,,0000*56
$GPGLL,4628.2796,N,01119.1917,E,173039.000,A*3F
$GPGSA,A,3,10,09,30,05,13,,,,,,,,2.2,2.0,1.0*3D
$GPGSV,3,1,12,30,76,182,47,10,62,168,39,13,52,286,50,05,49,300,48*79
$GPGSV,3,2,12,09,35,085,45,23,76,027,,07,62,059,43,04,11,207,*74
$GPGSV,3,3,12,02,09,325,,01,07,082,,28,05,168,,24,00,189,*7F
$GPRMC,173039.000,A,4628.2796,N,01119.1917,E,0.08,171.30,091214,,*0B
$GPVTG,171.30,T,,M,0.08,N,0.2,K*6E
$GPZDA,173040.000,09,12,2014,,*5A
$GPGGA,173040.000,4628.2789,N,01119.1914,E,1,05,2.0,228.9,M,47.6,M,,0000*57
$GPGLL,4628.2789,N,01119.1914,E,173040.000,A*3C
$GPGSA,A,3,10,09,30,05,13,,,,,,,,2.2,2.0,1.0*3D
$GPGSV,3,1,12,30,76,182,47,10,62,168,39,13,52,286,50,05,49,300,48*79
$GPGSV,3,2,12,09,35,085,45,23,76,027,,07,62,059,44,04,11,207,*73
$GPGSV,3,3,12,02,09,325,,01,07,082,,28,05,168,,24,00,189,*7F
$GPRMC,173040.000,A,4628.2789,N,01119.1914,E,0.48,294.85,091214,,*0A
$GPVTG,294.85,T,,M,0.48,N,0.9,K*67
$GPZDA,173041.000,09,12,2014,,*5B
$GPGGA,173041.000,4628.2798,N,01119.1916,E,1,05,2.0,230.5,M,47.6,M,,0000*51
$GPGLL,4628.2798,N,01119.1916,E,173041.000,A*3F
$GPGSA,A,3,10,09,30,05,13,,,,,,,,2.2,2.0,1.0*3D
$GPGSV,3,1,12,30,76,182,47,10,62,168,39,13,52,286,50,05,49,300,48*79
$GPGSV,3,2,12,09,35,085,45,23,76,027,,07,62,059,44,04,11,207,*73
$GPGSV,3,3,12,02,09,325,,01,07,082,,28,05,168,,24,00,189,*7F
$GPRMC,173041.000,A,4628.2798,N,01119.1916,E,1.50,303.24,091214,,*05
$GPVTG,303.24,T,,M,1.50,N,2.8,K*68
$GPZDA,173042.000,09,12,2014,,*58
$GPGGA,173042.000,4628.2819,N,01119.1917,E,1,05,2.0,234.2,M,47.6,M,,0000*56
$GPGLL,4628.2819,N,01119.1917,E,173042.000,A*3B
$GPGSA,A,3,10,09,30,05,13,,,,,,,,2.2,2.0,1.0*3D
$GPGSV,3,1,12,30,76,182,46,10,62,168,38,13,52,286,50,05,49,300,49*78
$GPGSV,3,2,12,09,35,085,44,23,76,027,,07,62,059,44,04,11,207,*72
$GPGSV,3,3,12,02,09,325,,01,07,082,,28,05,168,,24,00,189,*7F
$GPRMC,173042.000,A,4628.2819,N,01119.1917,E,3.71,318.57,091214,,*0E
$GPVTG,318.57,T,,M,3.71,N,6.9,K*62
$GPZDA,173043.000,09,12,2014,,*59
$GPGGA,173043.000,4628.2831,N,01119.1906,E,1,05,2.0,234.2,M,47.6,M,,0000*5D
$GPGLL,4628.2831,N,01119.1906,E,173043.000,A*30
$GPGSA,A,3,10,09,30,05,13,,,,,,,,2.2,2.0,1.0*3D
$GPGSV,3,1,12,30,76,182,46,10,62,168,38,13,52,286,50,05,49,300,49*78
$GPGSV,3,2,12,09,35,085,44,23,76,027,,07,62,059,44,04,11,207,*72
$GPGSV,3,3,12,02,09,325,,01,07,082,,28,05,168,,24,00,189,*7F
$GPRMC,173043.000,A,4628.2831,N,01119.1906,E,5.48,316.60,091214,,*03
$GPVTG,316.60,T,,M,5.48,N,10.2,K*58
$GPZDA,173044.000,09,12,2014,,*5E
$GPGGA,173044.000,4628.2850,N,01119.1890,E,1,05,2.0,235.5,M,47.6,M,,0000*55
$GPGLL,4628.2850,N,01119.1890,E,173044.000,A*3E
$GPGSA,A,3,10,09,30,05,13,,,,,,,,2.2,2.0,1.0*3D
$GPGSV,3,1,12,30,76,182,46,10,62,168,38,13,52,286,50,05,49,300,49*78
$GPGSV,3,2,12,09,35,085,44,23,76,027,,07,62,059,44,04,11,207,*72
$GPGSV,3,3,12,02,09,325,,01,07,082,,28,05,168,,24,00,189,*7F
$GPRMC,173044.000,A,4628.2850,N,01119.1890,E,7.22,310.98,091214,,*02
$GPVTG,310.98,T,,M,7.22,N,13.4,K*52
$GPZDA,173045.000,09,12,2014,,*5F
$GPGGA,173045.000,4628.2869,N,01119.1863,E,1,05,2.0,235.9,M,47.6,M,,0000*5E
$GPGLL,4628.2869,N,01119.1863,E,173045.000,A*39
$GPGSA,A,3,10,09,30,05,13,,,,,,,,2.2,2.0,1.0*3D
$GPGSV,3,1,12,30,76,182,46,10,62,168,38,13,52,286,50,05,49,300,50*70
$GPGSV,3,2,12,09,35,085,43,23,76,027,,07,62,059,44,04,11,207,*75
$GPGSV,3,3,12,02,09,325,,01,07,082,,28,05,168,,24,00,189,*7F
$GPRMC,173045.000,A,4628.2869,N,01119.1863,E,10.57,307.87,091214,,*39
$GPVTG,307.87,T,,M,10.57,N,19.6,K*66
$GPZDA,173046.000,09,12,2014,,*5C
$GPGGA,173046.000,4628.2890,N,01119.1828,E,1,05,2.0,236.3,M,47.6,M,,0000*5D
$GPGLL,4628.2890,N,01119.1828,E,173046.000,A*33
$GPGSA,A,3,10,09,30,05,13,,,,,,,,2.2,2.0,1.0*3D
$GPGSV,3,1,12,30,76,182,46,10,62,168,38,13,52,286,50,05,49,300,49*78
$GPGSV,3,2,12,09,35,085,43,23,76,027,,07,62,059,44,04,11,207,*75
$GPGSV,3,3,12,02,09,325,,01,07,082,,28,05,168,,24,00,189,*7F
$GPRMC,173046.000,A,4628.2890,N,01119.1828,E,11.51,304.56,091214,,*3B
$GPVTG,304.56,T,,M,11.51,N,21.3,K*60
$GPZDA,173047.000,09,12,2014,,*5D
$GPGGA,173047.000,4628.2911,N,01119.1785,E,1,05,2.0,236.5,M,47.6,M,,0000*5A
$GPGLL,4628.2911,N,01119.1785,E,173047.000,A*32
$GPGSA,A,3,10,09,30,05,13,,,,,,,,2.2,2.0,1.0*3D
$GPGSV,3,1,12,23,76,027,,30,76,182,46,10,62,168,38,07,62,059,44*78
$GPGSV,3,2,12,13,52,286,50,05,49,300,49,09,35,085,43,04,11,207,*75
$GPGSV,3,3,12,02,09,324,,01,07,082,,28,05,168,,24,00,189,*7E
$GPRMC,173047.000,A,4628.2911,N,01119.1785,E,13.87,299.16,091214,,*32
$GPVTG,299.16,T,,M,13.87,N,25.7,K*68
$GPZDA,173048.000,09,12,2014,,*52
$GPGGA,173048.000,4628.2931,N,01119.1729,E,1,05,2.0,236.6,M,47.6,M,,0000*52
$GPGLL,4628.2931,N,01119.1729,E,173048.000,A*39
$GPGSA,A,3,10,09,30,05,13,,,,,,,,2.2,2.0,1.0*3D
$GPGSV,3,1,12,23,76,027,,30,76,182,46,10,62,168,39,07,62,059,44*79
$GPGSV,3,2,12,13,52,286,50,05,49,300,49,09,35,085,43,04,11,207,*75
$GPGSV,3,3,12,02,09,324,,01,07,082,,28,05,168,,24,00,189,*7E
$GPRMC,173048.000,A,4628.2931,N,01119.1729,E,16.61,294.01,091214,,*3F
$GPVTG,294.01,T,,M,16.61,N,30.8,K*65
$GPZDA,173049.000,09,12,2014,,*53
$GPGGA,173049.000,4628.2952,N,01119.1665,E,1,05,2.0,236.7,M,47.6,M,,0000*5E
$GPGLL,4628.2952,N,01119.1665,E,173049.000,A*34
$GPGSA,A,3,10,09,30,05,13,,,,,,,,2.2,2.0,1.0*3D
$GPGSV,3,1,12,23,76,027,,30,76,182,46,10,62,168,39,07,62,059,44*79
$GPGSV,3,2,12,13,52,286,50,05,49,300,48,09,35,085,42,04,11,207,*75
$GPGSV,3,3,12,02,09,324,,01,07,082,,28,05,168,,24,00,189,*7E
$GPRMC,173049.000,A,4628.2952,N,01119.1665,E,17.75,292.51,091214,,*35
$GPVTG,292.51,T,,M,17.75,N,32.9,K*61
$GPZDA,173050.000,09,12,2014,,*5B
$GPGGA,173050.000,4628.2972,N,01119.1598,E,1,05,2.0,236.8,M,47.6,M,,0000*5A
$GPGLL,4628.2972,N,01119.1598,E,173050.000,A*3F
$GPGSA,A,3,10,09,30,05,13,,,,,,,,2.2,2.0,1.0*3D
$GPGSV,3,1,12,23,76,027,,30,76,182,46,10,62,168,40,07,62,059,44*77
$GPGSV,3,2,12,13,52,286,50,05,49,300,48,09,35,085,42,04,11,207,*75
$GPGSV,3,3,12,02,09,324,,01,07,082,,28,05,168,,24,00,189,*7E
$GPRMC,173050.000,A,4628.2972,N,01119.1598,E,18.05,292.35,091214,,*34
$GPVTG,292.35,T,,M,18.05,N,33.4,K*67
$GPZDA,173051.000,09,12,2014,,*5A
$GPGGA,173051.000,4628.2992,N,01119.1528,E,1,05,2.0,236.6,M,47.6,M,,0000*50
$GPGLL,4628.2992,N,01119.1528,E,173051.000,A*3B
$GPGSA,A,3,10,09,30,05,13,,,,,,,,2.2,2.0,1.0*3D
$GPGSV,3,1,12,23,76,027,,30,76,182,46,10,62,168,40,07,62,059,44*77
$GPGSV,3,2,12,13,52,286,50,05,49,300,47,09,35,085,42,04,11,207,*7A
$GPGSV,3,3,12,02,09,324,,01,07,082,,28,05,168,,24,00,189,*7E
$GPRMC,173051.000,A,4628.2992,N,01119.1528,E,18.84,292.14,091214,,*3A
$GPVTG,292.14,T,,M,18.84,N,34.9,K*67
$GPZDA,173052.000,09,12,2014,,*59
$GPGGA,173052.000,4628.3013,N,01119.1455,E,1,05,2.0,236.6,M,47.6,M,,0000*59
$GPGLL,4628.3013,N,01119.1455,E,173052.000,A*32
$GPGSA,A,3,10,09,30,05,13,,,,,,,,2.2,2.0,1.0*3D
$GPGSV,3,1,12,23,76,027,,30,76,182,46,10,62,168,40,07,62,059,44*77
$GPGSV,3,2,12,13,52,286,50,05,49,300,47,09,35,085,42,04,11,207,*7A
$GPGSV,3,3,12,02,09,324,,01,07,082,,28,05,168,,24,00,189,*7E
$GPRMC,173052.000,A,4628.3013,N,01119.1455,E,20.03,292.68,091214,,*3C
$GPVTG,292.68,T,,M,20.03,N,37.1,K*63
$GPZDA,173053.000,09,12,2014,,*58
$GPGGA,173053.000,4628.3036,N,01119.1378,E,1,05,2.0,236.5,M,47.6,M,,0000*54
$GPGLL,4628.3036,N,01119.1378,E,173053.000,A*3C
$GPGSA,A,3,10,09,30,05,13,,,,,,,,2.2,2.0,1.0*3D
$GPGSV,3,1,12,23,76,027,,30,76,182,46,10,62,168,40,07,62,059,44*77
$GPGSV,3,2,12,13,52,286,50,05,49,300,47,09,35,085,42,04,11,207,*7A
$GPGSV,3,3,12,02,09,324,28,01,07,082,,28,05,168,,24,00,189,*74
$GPRMC,173053.000,A,4628.3036,N,01119.1378,E,21.30,292.86,091214,,*33
$GPVTG,292.86,T,,M,21.30,N,39.5,K*68
$GPZDA,173054.000,09,12,2014,,*5F
$GPGGA,173054.000,4628.3060,N,01119.1298,E,1,05,2.0,236.4,M,47.6,M,,0000*5E
$GPGLL,4628.3060,N,01119.1298,E,173054.000,A*37
$GPGSA,A,3,10,09,30,05,13,,,,,,,,2.2,2.0,1.0*3D
$GPGSV,3,1,12,23,76,027,,30,76,182,46,10,62,168,41,07,62,059,44*76
$GPGSV,3,2,12,13,52,286,50,05,49,300,46,09,35,085,42,04,11,207,*7B
$GPGSV,3,3,12,02,09,324,,01,07,082,,28,05,168,,24,00,189,*7E
$GPRMC,173054.000,A,4628.3060,N,01119.1298,E,21.19,293.27,091214,,*39
$GPVTG,293.27,T,,M,21.19,N,39.2,K*6E
$GPZDA,173055.000,09,12,2014,,*5E
$GPGGA,173055.000,4628.3084,N,01119.1219,E,1,05,2.0,236.4,M,47.6,M,,0000*5C
$GPGLL,4628.3084,N,01119.1219,E,173055.000,A*35
$GPGSA,A,3,10,09,30,05,13,,,,,,,,2.2,2.0,1.0*3D
$GPGSV,3,1,12,23,76,027,,30,76,182,46,10,62,168,41,07,62,059,44*76
$GPGSV,3,2,12,13,52,286,50,05,49,300,46,09,35,085,42,04,11,207,*7B
$GPGSV,3,3,12,02,09,324,,01,07,082,,28,05,168,,24,00,189,*7E
$GPRMC,173055.000,A,4628.3084,N,01119.1219,E,21.23,293.28,091214,,*3D
$GPVTG,293.28,T,,M,21.23,N,39.3,K*69
$GPZDA,173056.000,09,12,2014,,*5D
$GPGGA,173056.000,4628.3108,N,01119.1140,E,1,05,2.0,236.3,M,47.6,M,,0000*52
$GPGLL,4628.3108,N,01119.1140,E,173056.000,A*3C
$GPGSA,A,3,10,09,30,05,13,,,,,,,,2.2,2.0,1.0*3D
$GPGSV,3,1,12,23,76,027,,30,76,182,46,10,62,168,41,07,62,059,44*76
$GPGSV,3,2,12,13,52,286,50,05,49,300,46,09,35,085,42,04,11,207,*7B
$GPGSV,3,3,12,02,09,324,,01,07,082,,28,05,168,,24,00,189,*7E
$GPRMC,173056.000,A,4628.3108,N,01119.1140,E,21.57,292.96,091214,,*33
$GPVTG,292.96,T,,M,21.57,N,40.0,K*63
$GPZDA,173057.000,09,12,2014,,*5C
$GPGGA,173057.000,4628.3131,N,01119.1060,E,1,05,2.0,236.2,M,47.6,M,,0000*5B
$GPGLL,4628.3131,N,01119.1060,E,173057.000,A*34
$GPGSA,A,3,10,09,30,05,13,,,,,,,,2.2,2.0,1.0*3D
$GPGSV,3,1,12,23,76,027,,30,76,182,46,10,62,168,41,07,62,059,44*76
$GPGSV,3,2,12,13,52,286,50,05,49,300,46,09,35,085,42,04,11,207,*7B
$GPGSV,3,3,12,02,09,324,,01,07,082,,28,05,168,,24,00,189,*7E
$GPRMC,173057.000,A,4628.3131,N,01119.1060,E,21.31,293.18,091214,,*3C
$GPVTG,293.18,T,,M,21.31,N,39.5,K*6F
$GPZDA,173058.000,09,12,2014,,*53
$GPGGA,173058.000,4628.3154,N,01119.0982,E,1,05,2.0,236.1,M,47.6,M,,0000*50
$GPGLL,4628.3154,N,01119.0982,E,173058.000,A*3C
$GPGSA,A,3,10,09,30,05,13,,,,,,,,2.2,2.0,1.0*3D
$GPGSV,3,1,12,23,76,027,,30,76,182,46,10,62,168,41,07,62,059,44*76
$GPGSV,3,2,12,13,52,286,50,05,49,300,46,09,35,085,42,04,11,207,*7B
$GPGSV,3,3,12,02,09,324,,01,07,082,,28,05,168,,24,00,189,*7E
$GPRMC,173058.000,A,4628.3154,N,01119.0982,E,20.51,292.62,091214,,*3F
$GPVTG,292.62,T,,M,20.51,N,38.0,K*60
$GPZDA,173059.000,09,12,2014,,*52
$GPGGA,173059.000,4628.3175,N,01119.0909,E,1,05,2.0,236.0,M,47.6,M,,0000*50
$GPGLL,4628.3175,N,01119.0909,E,173059.000,A*3D
$GPGSA,A,3,10,09,30,05,13,,,,,,,,2.2,2.0,1.0*3D
$GPGSV,3,1,12,23,76,027,,30,76,182,46,10,62,168,41,07,62,059,44*76
$GPGSV,3,2,12,13,52,286,50,05,49,300,46,09,35,085,42,04,11,207,*7B
$GPGSV,3,3,12,02,09,324,,01,07,082,,28,05,168,,24,00,189,*7E
$GPRMC,173059.000,A,4628.3175,N,01119.0909,E,18.80,292.05,091214,,*38
$GPVTG,292.05,T,,M,18.80,N,34.8,K*62
$GPZDA,173100.000,09,12,2014,,*5F
$GPGGA,173100.000,4628.3193,N,01119.0846,E,1,05,2.0,236.0,M,47.6,M,,0000*5F
$GPGLL,4628.3193,N,01119.0846,E,173100.000,A*32
$GPGSA,A,3,10,09,30,05,13,,,,,,,,2.2,2.0,1.0*3D
$GPGSV,3,1,12,23,76,027,,30,76,182,46,10,62,168,41,07,62,059,44*76
$GPGSV,3,2,12,13,52,286,50,05,49,300,45,09,35,085,42,04,11,207,*78
$GPGSV,3,3,12,02,09,324,,01,07,082,,28,05,168,,24,00,189,*7E
$GPRMC,173100.000,A,4628.3193,N,01119.0846,E,15.05,292.31,091214,,*30
$GPVTG,292.31,T,,M,15.05,N,27.9,K*66
$GPZDA,173101.000,09,12,2014,,*5E
$GPGGA,173101.000,4628.3207,N,01119.0798,E,1,05,2.0,235.9,M,47.6,M,,0000*56
$GPGLL,4628.3207,N,01119.0798,E,173101.000,A*31
$GPGSA,A,3,10,09,30,05,13,,,,,,,,2.2,2.0,1.0*3D
$GPGSV,3,1,12,23,76,027,,30,76,182,46,10,62,168,41,07,62,059,44*76
$GPGSV,3,2,12,13,52,286,50,05,49,300,45,09,35,085,42,04,11,207,*78
$GPGSV,3,3,12,02,09,324,,01,07,082,,28,05,168,,24,00,189,*7E
$GPRMC,173101.000,A,4628.3207,N,01119.0798,E,11.01,292.33,091214,,*31
$GPVTG,292.33,T,,M,11.01,N,20.4,K*6E
$GPZDA,173102.000,09,12,2014,,*5D
$GPGGA,173102.000,4628.3218,N,01119.0761,E,1,05,2.0,235.8,M,47.6,M,,0000*5C
$GPGLL,4628.3218,N,01119.0761,E,173102.000,A*3A
$GPGSA,A,3,10,09,30,05,13,,,,,,,,2.2,2.0,1.0*3D
$GPGSV,3,1,12,23,76,027,,30,76,182,47,10,62,168,41,07,62,059,44*77
$GPGSV,3,2,12,13,52,286,50,05,49,300,45,09,35,085,42,04,11,207,*78
$GPGSV,3,3,12,02,09,324,,01,07,082,,28,05,168,,24,00,189,*7E
$GPRMC,173102.000,A,4628.3218,N,01119.0761,E,9.15,292.38,091214,,*0D
$GPVTG,292.38,T,,M,9.15,N,16.9,K*51
$GPZDA,173103.000,09,12,2014,,*5C
$GPGGA,173103.000,4628.3227,N,01119.0729,E,1,05,2.0,235.7,M,47.6,M,,0000*52
$GPGLL,4628.3227,N,01119.0729,E,173103.000,A*3B
$GPGSA,A,3,10,09,30,05,13,,,,,,,,2.2,2.0,1.0*3D
$GPGSV,3,1,12,23,76,027,,30,76,182,47,10,62,168,41,07,62,059,44*77
$GPGSV,3,2,12,13,52,286,50,05,49,300,45,09,35,085,43,04,11,207,*79
$GPGSV,3,3,12,02,09,324,,01,07,082,,28,05,168,33,24,00,189,*7E
$GPRMC,173103.000,A,4628.3227,N,01119.0729,E,8.11,294.17,091214,,*02
$GPVTG,294.17,T,,M,8.11,N,15.0,K*55
$GPZDA,173104.000,09,12,2014,,*5B
$GPGGA,173104.000,4628.3244,N,01119.0708,E,1,06,2.1,238.5,M,47.6,M,,0000*5E
$GPGLL,4628.3244,N,01119.0708,E,173104.000,A*3A
$GPGSA,A,3,10,09,30,05,13,07,,,,,,,4.6,2.1,4.1*3D
$GPGSV,3,1,12,23,76,027,,30,76,182,47,10,62,168,41,07,62,059,44*77
$GPGSV,3,2,12,13,52,286,50,05,49,300,45,09,35,085,42,04,11,207,*78
$GPGSV,3,3,12,02,09,324,,01,07,082,,28,05,168,31,24,00,189,*7C
$GPRMC,173104.000,A,4628.3244,N,01119.0708,E,6.90,299.90,091214,,*06
$GPVTG,299.90,T,,M,6.90,N,12.8,K*5F
$GPZDA,173105.000,09,12,2014,,*5A
$GPGGA,173105.000,4628.3257,N,01119.0690,E,1,06,2.1,240.2,M,47.6,M,,0000*55
$GPGLL,4628.3257,N,01119.0690,E,173105.000,A*39
$GPGSA,A,3,10,09,30,05,13,07,,,,,,,4.6,2.1,4.1*3D
$GPGSV,3,1,12,23,76,028,,30,76,181,46,10,62,168,41,07,62,059,44*7A
$GPGSV,3,2,12,13,52,287,50,05,49,300,46,09,35,085,42,04,11,207,*7A
$GPGSV,3,3,12,02,10,324,,01,06,082,,28,05,168,31,24,00,189,*75
$GPRMC,173105.000,A,4628.3257,N,01119.0690,E,5.52,306.51,091214,,*02
$GPVTG,306.51,T,,M,5.52,N,10.2,K*50
$GPZDA,173106.000,09,12,2014,,*59
$GPGGA,173106.000,4628.3268,N,01119.0678,E,1,06,2.1,241.4,M,47.6,M,,0000*5B
$GPGLL,4628.3268,N,01119.0678,E,173106.000,A*30
$GPGSA,A,3,10,09,30,05,13,07,,,,,,,4.6,2.1,4.1*3D
$GPGSV,3,1,12,23,76,028,,30,76,181,46,10,62,168,38,07,62,059,44*74
$GPGSV,3,2,12,13,52,287,50,05,49,300,47,09,35,085,42,04,11,207,*7B
$GPGSV,3,3,12,02,10,324,,01,06,082,,28,05,168,31,24,00,189,*75
$GPRMC,173106.000,A,4628.3268,N,01119.0678,E,4.05,314.33,091214,,*0F
$GPVTG,314.33,T,,M,4.05,N,7.5,K*65
$GPZDA,173107.000,09,12,2014,,*58
$GPGGA,173107.000,4628.3277,N,01119.0671,E,1,06,2.1,242.4,M,47.6,M,,0000*5E
$GPGLL,4628.3277,N,01119.0671,E,173107.000,A*36
$GPGSA,A,3,10,09,30,05,13,07,,,,,,,4.6,2.1,4.1*3D
$GPGSV,3,1,12,23,76,028,,30,76,181,46,10,62,168,36,07,62,059,45*7B
$GPGSV,3,2,12,13,52,287,50,05,49,300,48,09,35,085,42,04,11,207,*74
$GPGSV,3,3,12,02,10,324,,01,06,082,,28,05,168,31,24,00,189,*75
$GPRMC,173107.000,A,4628.3277,N,01119.0671,E,2.67,320.59,091214,,*00
$GPVTG,320.59,T,,M,2.67,N,4.9,K*63
$GPZDA,173108.000,09,12,2014,,*57
$GPGGA,173108.000,4628.3284,N,01119.0668,E,1,06,2.1,243.1,M,47.6,M,,0000*51
$GPGLL,4628.3284,N,01119.0668,E,173108.000,A*3D
$GPGSA,A,3,10,09,30,05,13,07,,,,,,,4.6,2.1,4.1*3D
$GPGSV,3,1,12,23,76,028,,30,76,181,45,10,62,168,36,07,62,059,44*79
$GPGSV,3,2,12,13,52,287,51,05,49,300,48,09,35,085,42,04,11,207,*75
$GPGSV,3,3,12,02,10,324,,01,06,082,,28,05,168,31,24,00,189,*75
$GPRMC,173108.000,A,4628.3284,N,01119.0668,E,1.77,326.40,091214,,*07
$GPVTG,326.40,T,,M,1.77,N,3.3,K*62
$GPZDA,173109.000,09,12,2014,,*56
$GPGGA,173109.000,4628.3289,N,01119.0666,E,1,06,2.1,243.8,M,47.6,M,,0000*5A
$GPGLL,4628.3289,N,01119.0666,E,173109.000,A*3F
$GPGSA,A,3,10,09,30,05,13,07,,,,,,,4.6,2.1,4.1*3D
$GPGSV,3,1,12,23,76,028,,30,76,181,45,10,62,168,35,07,62,059,44*7A
$GPGSV,3,2,12,13,52,287,51,05,49,300,49,09,35,085,41,04,11,207,*77
$GPGSV,3,3,12,02,10,324,,01,06,082,,28,05,168,31,24,00,189,*75
$GPRMC,173109.000,A,4628.3289,N,01119.0666,E,1.31,330.25,091214,,*03
$GPVTG,330.25,T,,M,1.31,N,2.4,K*62
$GPZDA,173110.000,09,12,2014,,*5E
$GPGGA,173110.000,4628.3292,N,01119.0665,E,1,06,2.1,244.2,M,47.6,M,,0000*56
$GPGLL,4628.3292,N,01119.0665,E,173110.000,A*3E
$GPGSA,A,3,10,09,30,05,13,07,,,,,,,4.6,2.1,4.1*3D
$GPGSV,3,1,12,23,76,028,,30,76,181,44,10,62,168,35,07,62,059,44*7B
$GPGSV,3,2,12,13,52,287,51,05,49,300,49,09,35,085,40,04,11,207,*76
$GPGSV,3,3,12,02,10,324,,01,06,082,,28,05,168,31,24,00,189,*75
$GPRMC,173110.000,A,4628.3292,N,01119.0665,E,0.96,335.40,091214,,*08
$GPVTG,335.40,T,,M,0.96,N,1.8,K*67
$GPZDA,173111.000,09,12,2014,,*5F
$GPGGA,173111.000,4628.3300,N,01119.0667,E,1,06,2.1,245.5,M,47.6,M,,0000*59
$GPGLL,4628.3300,N,01119.0667,E,173111.000,A*37
$GPGSA,A,3,10,09,30,05,13,07,,,,,,,4.6,2.1,4.1*3D
$GPGSV,3,1,12,23,76,028,,30,76,181,44,10,62,168,35,07,62,059,45*7A
$GPGSV,3,2,12,13,52,287,51,05,49,300,49,09,35,085,40,04,11,207,*76
$GPGSV,3,3,12,02,10,324,,01,06,082,25,28,05,168,31,24,00,189,*72
$GPRMC,173111.000,A,4628.3300,N,01119.0667,E,0.76,338.50,091214,,*03
$GPVTG,338.50,T,,M,0.76,N,1.4,K*69
$GPZDA,173112.000,09,12,2014,,*5C
$GPGGA,173112.000,4628.3307,N,01119.0667,E,1,06,2.1,246.5,M,47.6,M,,0000*5E
$GPGLL,4628.3307,N,01119.0667,E,173112.000,A*33
$GPGSA,A,3,10,09,30,05,13,07,,,,,,,4.6,2.1,4.1*3D
$GPGSV,3,1,12,23,76,028,,30,76,181,43,10,62,168,30,07,62,059,45*78
$GPGSV,3,2,12,13,52,287,51,05,49,300,50,09,35,085,40,04,11,207,*7E
$GPGSV,3,3,12,02,10,324,,01,06,082,,28,05,168,32,24,00,189,*76
$GPRMC,173112.000,A,4628.3307,N,01119.0667,E,1.14,334.95,091214,,*07
$GPVTG,334.95,T,,M,1.14,N,2.1,K*6F
$GPZDA,173113.000,09,12,2014,,*5D
$GPGGA,173113.000,4628.3312,N,01119.0667,E,1,06,2.1,247.1,M,47.6,M,,0000*5E
$GPGLL,4628.3312,N,01119.0667,E,173113.000,A*36
$GPGSA,A,3,10,09,30,05,13,07,,,,,,,4.6,2.1,4.1*3D
$GPGSV,3,1,12,23,76,028,,30,76,181,43,10,62,168,29,07,62,059,45*70
$GPGSV,3,2,12,13,52,287,51,05,49,300,50,09,35,085,40,04,11,207,*7E
$GPGSV,3,3,12,02,10,324,,01,06,082,,28,05,168,33,24,00,189,*77
$GPRMC,173113.000,A,4628.3312,N,01119.0667,E,1.38,335.77,091214,,*01
$GPVTG,335.77,T,,M,1.38,N,2.6,K*6B
$GPZDA,173114.000,09,12,2014,,*5A
$GPGGA,173114.000,4628.3319,N,01119.0667,E,1,06,2.1,247.9,M,47.6,M,,0000*5A
$GPGLL,4628.3319,N,01119.0667,E,173114.000,A*3A
$GPGSA,A,3,10,09,30,05,13,07,,,,,,,4.6,2.1,4.1*3D
$GPGSV,3,1,12,23,76,028,,30,76,181,42,10,62,168,29,07,62,059,45*71
$GPGSV,3,2,12,13,52,287,51,05,49,300,50,09,35,085,41,04,11,207,*7F
$GPGSV,3,3,12,02,10,324,,01,06,082,,28,05,168,32,24,00,189,*76
$GPRMC,173114.000,A,4628.3319,N,01119.0667,E,1.13,335.18,091214,,*0D
$GPVTG,335.18,T,,M,1.13,N,2.1,K*6C
$GPZDA,173115.000,09,12,2014,,*5B
$GPGGA,173115.000,4628.3325,N,01119.0666,E,1,06,2.1,248.5,M,47.6,M,,0000*56
$GPGLL,4628.3325,N,01119.0666,E,173115.000,A*35
$GPGSA,A,3,10,09,30,05,13,07,,,,,,,4.6,2.1,4.1*3D
$GPGSV,3,1,12,23,76,028,,30,76,181,42,10,62,168,29,07,62,059,45*71
$GPGSV,3,2,12,13,52,287,51,05,49,300,50,09,35,085,41,04,11,207,*7F
$GPGSV,3,3,12,02,10,324,,01,06,082,,28,05,168,33,24,00,189,*77
$GPRMC,173115.000,A,4628.3325,N,01119.0666,E,1.00,342.30,091214,,*0A
$GPVTG,342.30,T,,M,1.00,N,1.9,K*6F
$GPZDA,173116.000,09,12,2014,,*58
$GPGGA,173116.000,4628.3327,N,01119.0666,E,1,06,2.1,248.6,M,47.6,M,,0000*54
$GPGLL,4628.3327,N,01119.0666,E,173116.000,A*34
$GPGSA,A,3,10,09,30,05,13,07,,,,,,,4.6,2.1,4.1*3D
$GPGSV,3,1,12,23,76,028,,30,76,181,42,10,62,168,29,07,62,059,45*71
$GPGSV,3,2,12,13,52,287,51,05,49,300,50,09,35,085,40,04,11,207,*7E
$GPGSV,3,3,12,02,10,324,,01,06,082,,28,05,168,33,24,00,189,*77
$GPRMC,173116.000,A,4628.3327,N,01119.0666,E,0.74,342.51,091214,,*0E
$GPVTG,342.51,T,,M,0.74,N,1.4,K*67
$GPZDA,173117.000,09,12,2014,,*59
$GPGGA,173117.000,4628.3329,N,01119.0666,E,1,06,2.1,248.7,M,47.6,M,,0000*5A
$GPGLL,4628.3329,N,01119.0666,E,173117.000,A*3B
$GPGSA,A,3,10,09,30,05,13,07,,,,,,,4.6,2.1,4.1*3D
$GPGSV,3,1,12,23,76,028,,30,76,181,41,10,62,168,28,07,62,059,45*73
$GPGSV,3,2,12,13,52,287,51,05,49,299,51,09,35,085,41,04,10,206,*7F
$GPGSV,3,3,12,02,10,324,,01,06,082,,28,05,168,33,24,00,189,*77
$GPRMC,173117.000,A,4628.3329,N,01119.0666,E,0.56,345.97,091214,,*0C
$GPVTG,345.97,T,,M,0.56,N,1.0,K*6E
$GPZDA,173118.000,09,12,2014,,*56
$GPGGA,173118.000,4628.3331,N,01119.0666,E,1,06,2.1,248.9,M,47.6,M,,0000*52
$GPGLL,4628.3331,N,01119.0666,E,173118.000,A*3D
$GPGSA,A,3,10,09,30,05,13,07,,,,,,,4.6,2.1,4.1*3D
$GPGSV,3,1,12,23,76,028,,30,76,181,41,10,62,168,28,07,62,059,45*73
$GPGSV,3,2,12,13,52,287,51,05,49,299,51,09,35,085,40,04,10,206,*7E
$GPGSV,3,3,12,02,10,324,,01,06,082,,28,05,168,33,24,00,189,*77
$GPRMC,173118.000,A,4628.3331,N,01119.0666,E,0.44,354.92,091214,,*0C
$GPVTG,354.92,T,,M,0.44,N,0.8,K*61
$GPZDA,173119.000,09,12,2014,,*57
$GPGGA,173119.000,4628.3331,N,01119.0666,E,1,05,2.9,248.9,M,47.6,M,,0000*58
$GPGLL,4628.3331,N,01119.0666,E,173119.000,A*3C
$GPGSA,A,3,09,30,05,13,07,,,,,,,,5.1,2.9,4.2*31
$GPGSV,3,1,12,23,76,028,,30,76,181,40,10,62,168,28,07,62,059,45*72
$GPGSV,3,2,12,13,52,287,51,05,49,299,51,09,35,085,34,04,10,206,*7D
$GPGSV,3,3,12,02,10,324,,01,06,082,,28,05,168,33,24,00,189,*77
$GPRMC,173119.000,A,4628.3331,N,01119.0666,E,0.12,33.51,091214,,*33
$GPVTG,33.51,T,,M,0.12,N,0.2,K*55
$GPZDA,173120.000,09,12,2014,,*5D
$GPGGA,173120.000,4628.3331,N,01119.0666,E,1,05,2.9,248.8,M,47.6,M,,0000*53
$GPGLL,4628.3331,N,01119.0666,E,173120.000,A*36
$GPGSA,A,3,09,30,05,13,07,,,,,,,,5.1,2.9,4.2*31
$GPGSV,3,1,12,23,76,028,,30,76,181,40,10,62,168,,07,62,059,45*78
$GPGSV,3,2,12,13,52,287,51,05,49,299,51,09,35,085,35,04,10,206,*7C
$GPGSV,3,3,12,02,10,324,,01,06,082,,28,05,168,33,24,00,189,*77
$GPRMC,173120.000,A,4628.3331,N,01119.0666,E,0.11,47.79,091214,,*33
$GPVTG,47.79,T,,M,0.11,N,0.2,K*5F
$GPZDA,173121.000,09,12,2014,,*5C
$GPGGA,173121.000,4628.3331,N,01119.0667,E,1,05,2.9,248.8,M,47.6,M,,0000*53
$GPGLL,4628.3331,N,01119.0667,E,173121.000,A*36
$GPGSA,A,3,09,30,05,13,07,,,,,,,,5.1,2.9,4.2*31
$GPGSV,3,1,12,23,76,028,,30,76,181,40,10,62,168,,07,62,059,45*78
$GPGSV,3,2,12,13,52,287,51,05,49,299,51,09,35,085,36,04,10,206,*7F
$GPGSV,3,3,12,02,10,324,,01,06,082,,28,05,168,33,24,00,189,*77
$GPRMC,173121.000,A,4628.3331,N,01119.0667,E,0.39,354.69,091214,,*09
$GPVTG,354.69,T,,M,0.39,N,0.7,K*60
$GPZDA,173122.000,09,12,2014,,*5F
$GPGGA,173122.000,4628.3331,N,01119.0666,E,1,05,2.9,248.7,M,47.6,M,,0000*5E
$GPGLL,4628.3331,N,01119.0666,E,173122.000,A*34
$GPGSA,A,3,09,30,05,13,07,,,,,,,,5.1,2.9,4.2*31
$GPGSV,3,1,12,23,76,028,,30,76,181,40,10,62,168,,07,62,059,45*78
$GPGSV,3,2,12,13,52,287,52,05,49,299,51,09,35,085,38,04,10,206,*72
$GPGSV,3,3,12,02,10,324,,01,06,082,,28,05,168,33,24,00,189,*77
$GPRMC,173122.000,A,4628.3331,N,01119.0666,E,0.56,350.37,091214,,*0D
$GPVTG,350.37,T,,M,0.56,N,1.0,K*60
$GPZDA,173123.000,09,12,2014,,*5E
$GPGGA,173123.000,4628.3332,N,01119.0666,E,1,05,2.9,248.6,M,47.6,M,,0000*5D
$GPGLL,4628.3332,N,01119.0666,E,173123.000,A*36
$GPGSA,A,3,09,30,05,13,07,,,,,,,,5.1,2.9,4.2*31
$GPGSV,3,1,12,23,76,028,,30,76,181,40,10,62,168,,07,62,059,45*78
$GPGSV,3,2,12,13,52,287,52,05,49,299,51,09,35,085,41,04,10,206,*7C
$GPGSV,3,3,12,02,10,324,,01,06,082,,28,05,168,33,24,00,189,*77
$GPRMC,173123.000,A,4628.3332,N,01119.0666,E,0.53,353.17,091214,,*0B
$GPVTG,353.17,T,,M,0.53,N,1.0,K*64
$GPZDA,173124.000,09,12,2014,,*59
$GPGGA,173124.000,4628.3333,N,01119.0666,E,1,05,2.9,248.6,M,47.6,M,,0000*5B
$GPGLL,4628.3333,N,01119.0666,E,173124.000,A*30
$GPGSA,A,3,09,30,05,13,07,,,,,,,,5.1,2.9,4.2*31
$GPGSV,3,1,12,23,76,028,,30,76,181,40,10,62,168,,07,62,059,45*78
$GPGSV,3,2,12,13,52,287,51,05,49,299,51,09,35,085,40,04,10,206,*7E
$GPGSV,3,3,12,02,10,324,,01,06,082,,28,05,168,33,24,00,189,*77
$GPRMC,173124.000,A,4628.3333,N,01119.0666,E,0.68,348.91,091214,,*01
$GPVTG,348.91,T,,M,0.68,N,1.3,K*6B
$GPZDA,173125.000,09,12,2014,,*58
$GPGGA,173125.000,4628.3335,N,01119.0665,E,1,05,2.9,248.5,M,47.6,M,,0000*5C
$GPGLL,4628.3335,N,01119.0665,E,173125.000,A*34
$GPGSA,A,3,09,30,05,13,07,,,,,,,,5.1,2.9,4.2*31
$GPGSV,3,1,12,23,76,028,,30,76,181,40,10,62,168,,07,62,059,45*78
$GPGSV,3,2,12,13,52,287,51,05,49,299,51,09,35,085,40,04,10,206,*7E
$GPGSV,3,3,12,02,10,324,,01,06,082,,28,05,168,33,24,00,189,*77
$GPRMC,173125.000,A,4628.3335,N,01119.0665,E,1.06,349.76,091214,,*04
$GPVTG,349.76,T,,M,1.06,N,2.0,K*6A
$GPZDA,173126.000,09,12,2014,,*5B
$GPGGA,173126.000,4628.3338,N,01119.0665,E,1,05,2.9,248.5,M,47.6,M,,0000*52
$GPGLL,4628.3338,N,01119.0665,E,173126.000,A*3A
$GPGSA,A,3,09,30,05,13,07,,,,,,,,5.1,2.9,4.2*31
$GPGSV,3,1,12,23,76,028,,30,76,181,39,10,62,168,,07,62,059,45*76
$GPGSV,3,2,12,13,52,287,51,05,49,299,51,09,35,085,40,04,10,206,*7E
$GPGSV,3,3,12,02,10,324,,01,06,082,,28,05,168,33,24,00,189,*77
$GPRMC,173126.000,A,4628.3338,N,01119.0665,E,1.69,352.39,091214,,*02
$GPVTG,352.39,T,,M,1.69,N,3.1,K*62
$GPZDA,173127.000,09,12,2014,,*5A
$GPGGA,173127.000,4628.3343,N,01119.0664,E,1,06,2.1,248.5,M,47.6,M,,0000*55
$GPGLL,4628.3343,N,01119.0664,E,173127.000,A*36
$GPGSA,A,3,10,09,30,05,13,07,,,,,,,4.6,2.1,4.1*3D
$GPGSV,3,1,12,23,76,028,,30,76,181,39,10,62,168,27,07,62,059,45*73
$GPGSV,3,2,12,13,52,287,51,05,49,299,51,09,35,085,40,04,10,206,*7E
$GPGSV,3,3,12,02,10,324,,01,06,082,,28,05,168,33,24,00,189,*77
$GPRMC,173127.000,A,4628.3343,N,01119.0664,E,1.72,356.41,091214,,*0F
$GPVTG,356.41,T,,M,1.72,N,3.2,K*60
$GPZDA,173128.000,09,12,2014,,*55
$GPGGA,173128.000,4628.3344,N,01119.0663,E,1,06,2.1,248.3,M,47.6,M,,0000*5C
$GPGLL,4628.3344,N,01119.0663,E,173128.000,A*39
$GPGSA,A,3,10,09,30,05,13,07,,,,,,,4.6,2.1,4.1*3D
$GPGSV,3,1,12,23,76,028,,30,76,181,39,10,62,168,28,07,62,059,45*7C
$GPGSV,3,2,12,13,52,287,51,05,49,299,51,09,35,085,41,04,10,206,*7F
$GPGSV,3,3,12,02,10,324,,01,06,082,,28,05,168,33,24,00,189,*77
$GPRMC,173128.000,A,4628.3344,N,01119.0663,E,1.64,358.93,091214,,*06
$GPVTG,358.93,T,,M,1.64,N,3.0,K*64
$GPZDA,173129.000,09,12,2014,,*54
$GPGGA,173129.000,4628.3349,N,01119.0663,E,1,05,2.9,248.2,M,47.6,M,,0000*5A
$GPGLL,4628.3349,N,01119.0663,E,173129.000,A*35
$GPGSA,A,3,09,30,05,13,07,,,,,,,,5.1,2.9,4.2*31
$GPGSV,3,1,12,23,76,028,,30,76,181,39,10,62,168,,07,62,059,45*76
$GPGSV,3,2,12,13,52,287,51,05,49,299,51,09,35,085,41,04,10,206,*7F
$GPGSV,3,3,12,02,10,324,,01,06,082,,28,05,168,38,24,00,189,*7C
$GPRMC,173129.000,A,4628.3349,N,01119.0663,E,1.79,2.77,091214,,*00
$GPVTG,2.77,T,,M,1.79,N,3.3,K*6D
$GPZDA,173130.000,09,12,2014,,*5C
$GPGGA,173130.000,4628.3354,N,01119.0663,E,1,05,2.9,248.2,M,47.6,M,,0000*5E
$GPGLL,4628.3354,N,01119.0663,E,173130.000,A*31
$GPGSA,A,3,09,30,05,13,07,,,,,,,,5.1,2.9,4.2*31
$GPGSV,3,1,12,23,76,028,,30,76,181,39,10,62,168,,07,62,059,45*76
$GPGSV,3,2,12,13,52,287,51,05,49,299,51,09,35,085,41,04,10,206,*7F
$GPGSV,3,3,12,02,10,324,,01,06,082,,28,05,168,42,24,00,189,*71
$GPRMC,173130.000,A,4628.3354,N,01119.0663,E,2.45,359.12,091214,,*06
$GPVTG,359.12,T,,M,2.45,N,4.5,K*6E
$GPZDA,173131.000,09,12,2014,,*5D
$GPGGA,173131.000,4628.3363,N,01119.0663,E,1,05,2.9,248.2,M,47.6,M,,0000*5B
$GPGLL,4628.3363,N,01119.0663,E,173131.000,A*34
$GPGSA,A,3,09,30,05,13,07,,,,,,,,5.1,2.9,4.2*31
$GPGSV,3,1,12,23,76,028,,30,76,181,38,10,62,168,,07,62,059,45*77
$GPGSV,3,2,12,13,52,287,51,05,49,299,51,09,35,085,41,04,10,206,*7F
$GPGSV,3,3,12,02,10,324,,01,06,082,,28,05,168,42,24,00,189,*71
$GPRMC,173131.000,A,4628.3363,N,01119.0663,E,3.69,356.30,091214,,*03
$GPVTG,356.30,T,,M,3.69,N,6.8,K*61
$GPZDA,173132.000,09,12,2014,,*5E
$GPGGA,173132.000,4628.3376,N,01119.0662,E,1,05,2.9,248.1,M,47.6,M,,0000*5E
$GPGLL,4628.3376,N,01119.0662,E,173132.000,A*32
$GPGSA,A,3,09,30,05,13,07,,,,,,,,5.1,2.9,4.2*31
$GPGSV,3,1,12,23,76,028,,30,76,181,38,10,62,168,31,07,62,059,45*75
$GPGSV,3,2,12,13,52,287,51,05,49,299,51,09,35,085,41,04,10,206,*7F
$GPGSV,3,3,12,02,10,324,,01,06,082,,28,05,168,38,24,00,189,*7C
$GPRMC,173132.000,A,4628.3376,N,01119.0662,E,5.45,355.25,091214,,*0A
$GPVTG,355.25,T,,M,5.45,N,10.1,K*50
$GPZDA,173133.000,09,12,2014,,*5F
$GPGGA,173133.000,4628.3396,N,01119.0662,E,1,05,2.9,247.8,M,47.6,M,,0000*57
$GPGLL,4628.3396,N,01119.0662,E,173133.000,A*3D
$GPGSA,A,3,09,30,05,13,07,,,,,,,,5.1,2.9,4.2*31
$GPGSV,3,1,12,23,76,028,,30,76,181,34,10,62,168,,07,62,059,45*7B
$GPGSV,3,2,12,13,52,287,51,05,49,299,46,09,35,085,42,04,10,206,*7A
$GPGSV,3,3,12,02,10,324,,01,06,082,,28,05,168,33,24,00,189,*77
$GPRMC,173133.000,A,4628.3396,N,01119.0662,E,7.10,2.94,091214,,*0C
$GPVTG,2.94,T,,M,7.10,N,13.2,K*59
$GPZDA,173134.000,09,12,2014,,*58
$GPGGA,173134.000,4628.3420,N,01119.0670,E,1,05,2.9,247.5,M,47.6,M,,0000*54
$GPGLL,4628.3420,N,01119.0670,E,173134.000,A*33
$GPGSA,A,3,09,30,05,13,07,,,,,,,,5.1,2.9,4.2*31
$GPGSV,3,1,12,23,76,028,,30,76,181,31,10,62,168,,07,62,059,43*78
$GPGSV,3,2,12,13,52,287,50,05,49,299,46,09,35,085,42,04,10,206,*7B
$GPGSV,3,3,12,02,10,324,,01,06,082,,28,05,168,36,24,00,189,*72
$GPRMC,173134.000,A,4628.3420,N,01119.0670,E,9.51,20.41,091214,,*31
$GPVTG,20.41,T,,M,9.51,N,17.6,K*6A
$GPZDA,173135.000,09,12,2014,,*59
$GPGGA,173135.000,4628.3447,N,01119.0689,E,1,06,2.0,247.5,M,47.6,M,,0000*58
$GPGLL,4628.3447,N,01119.0689,E,173135.000,A*35
$GPGSA,A,3,10,09,30,05,13,07,,,,,,,4.6,2.0,4.1*3C
$GPGSV,3,1,12,30,76,181,31,23,76,028,,10,62,168,42,07,61,059,38*71
$GPGSV,3,2,12,13,53,287,50,05,49,299,47,09,35,085,42,04,10,206,*7B
$GPGSV,3,3,12,02,10,324,,01,06,082,,28,05,168,36,24,00,188,*73
$GPRMC,173135.000,A,4628.3447,N,01119.0689,E,11.21,31.46,091214,,*0E
$GPVTG,31.46,T,,M,11.21,N,20.8,K*59
$GPZDA,173136.000,09,12,2014,,*5A
$GPGGA,173136.000,4628.3478,N,01119.0716,E,1,06,2.0,247.5,M,47.6,M,,0000*50
$GPGLL,4628.3478,N,01119.0716,E,173136.000,A*3D
$GPGSA,A,3,10,09,30,05,13,07,,,,,,,4.6,2.0,4.1*3C
$GPGSV,3,1,12,30,76,181,32,23,76,028,,10,62,168,42,07,61,059,38*72
$GPGSV,3,2,12,13,53,287,50,05,49,299,48,09,35,085,42,04,10,206,*74
$GPGSV,3,3,12,02,10,324,,01,06,082,,28,05,168,35,24,00,188,*70
$GPRMC,173136.000,A,4628.3478,N,01119.0716,E,13.28,33.41,091214,,*08
$GPVTG,33.41,T,,M,13.28,N,24.6,K*5D
$GPZDA,173137.000,09,12,2014,,*5B
$GPGGA,173137.000,4628.3513,N,01119.0748,E,1,06,2.0,247.6,M,47.6,M,,0000*55
$GPGLL,4628.3513,N,01119.0748,E,173137.000,A*3B
$GPGSA,A,3,10,09,30,05,13,07,,,,,,,4.6,2.0,4.1*3C
$GPGSV,3,1,12,30,76,181,31,23,76,028,,10,62,168,42,07,61,059,38*71
$GPGSV,3,2,12,13,53,287,50,05,49,299,48,09,35,085,42,04,10,206,*74
$GPGSV,3,3,12,02,10,324,,01,06,082,,28,05,168,30,24,00,188,*75
$GPRMC,173137.000,A,4628.3513,N,01119.0748,E,16.43,31.00,091214,,*01
$GPVTG,31.00,T,,M,16.43,N,30.4,K*55
$GPZDA,173138.000,09,12,2014,,*54
$GPGGA,173138.000,4628.3556,N,01119.0783,E,1,06,2.0,247.7,M,47.6,M,,0000*5D
$GPGLL,4628.3556,N,01119.0783,E,173138.000,A*32
$GPGSA,A,3,10,09,30,05,13,07,,,,,,,4.6,2.0,4.1*3C
$GPGSV,3,1,12,30,76,181,31,23,76,028,,10,62,168,42,07,61,059,38*71
$GPGSV,3,2,12,13,53,287,50,05,49,299,48,09,35,085,42,04,10,206,*74
$GPGSV,3,3,12,02,10,324,,01,06,082,,28,05,168,33,24,00,188,*76
$GPRMC,173138.000,A,4628.3556,N,01119.0783,E,18.26,27.45,091214,,*03
$GPVTG,27.45,T,,M,18.26,N,33.8,K*51
$GPZDA,173139.000,09,12,2014,,*55
$GPGGA,173139.000,4628.3603,N,01119.0816,E,1,06,2.0,247.8,M,47.6,M,,0000*53
$GPGLL,4628.3603,N,01119.0816,E,173139.000,A*33
$GPGSA,A,3,10,09,30,05,13,07,,,,,,,4.6,2.0,4.1*3C
$GPGSV,3,1,12,30,76,181,31,23,76,028,,10,62,168,41,07,61,059,38*72
$GPGSV,3,2,12,13,53,287,50,05,49,299,48,09,35,085,42,04,10,206,*74
$GPGSV,3,3,12,02,10,324,,01,06,082,,28,05,168,34,24,00,188,*71
$GPRMC,173139.000,A,4628.3603,N,01119.0816,E,18.20,25.48,091214,,*0B
$GPVTG,25.48,T,,M,18.20,N,33.7,K*57
$GPZDA,173140.000,09,12,2014,,*5B
$GPGGA,173140.000,4628.3651,N,01119.0849,E,1,06,2.0,247.9,M,47.6,M,,0000*51
$GPGLL,4628.3651,N,01119.0849,E,173140.000,A*30
$GPGSA,A,3,10,09,30,05,13,07,,,,,,,4.6,2.0,4.1*3C
$GPGSV,3,1,12,30,76,181,31,23,76,028,,10,62,168,41,07,61,059,39*73
$GPGSV,3,2,12,13,53,287,50,05,49,299,48,09,35,085,42,04,10,206,*74
$GPGSV,3,3,12,02,10,324,,01,06,082,,28,05,168,34,24,00,188,*71
$GPRMC,173140.000,A,4628.3651,N,01119.0849,E,18.69,25.39,091214,,*03
$GPVTG,25.39,T,,M,18.69,N,34.6,K*5A
$GPZDA,173141.000,09,12,2014,,*5A
$GPGGA,173141.000,4628.3698,N,01119.0884,E,1,06,2.0,248.0,M,47.6,M,,0000*52
$GPGLL,4628.3698,N,01119.0884,E,173141.000,A*35
$GPGSA,A,3,10,09,30,05,13,07,,,,,,,4.6,2.0,4.1*3C
$GPGSV,3,1,12,30,76,181,31,23,76,028,,10,62,168,41,07,61,059,39*73
$GPGSV,3,2,12,13,53,287,50,05,49,299,48,09,35,085,42,04,10,206,*74
$GPGSV,3,3,12,02,10,324,,01,06,082,,28,05,168,32,24,00,188,*77
$GPRMC,173141.000,A,4628.3698,N,01119.0884,E,19.43,27.62,091214,,*03
$GPVTG,27.62,T,,M,19.43,N,36.0,K*5B
$GPZDA,173142.000,09,12,2014,,*59
$GPGGA,173142.000,4628.3747,N,01119.0925,E,1,06,2.0,248.1,M,47.6,M,,0000*59
$GPGLL,4628.3747,N,01119.0925,E,173142.000,A*3F
$GPGSA,A,3,10,09,30,05,13,07,,,,,,,4.6,2.0,4.1*3C
$GPGSV,3,1,12,30,76,181,31,23,76,028,,10,62,168,41,07,61,059,39*73
$GPGSV,3,2,12,13,53,287,50,05,49,299,49,09,35,085,42,04,10,206,*75
$GPGSV,3,3,12,02,10,324,,01,06,082,,28,05,168,24,24,00,188,*70
$GPRMC,173142.000,A,4628.3747,N,01119.0925,E,20.55,32.46,091214,,*06
$GPVTG,32.46,T,,M,20.55,N,38.1,K*5B
$GPZDA,173143.000,09,12,2014,,*58
$GPGGA,173143.000,4628.3796,N,01119.0973,E,1,06,2.0,248.3,M,47.6,M,,0000*55
$GPGLL,4628.3796,N,01119.0973,E,173143.000,A*31
$GPGSA,A,3,10,09,30,05,13,07,,,,,,,4.6,2.0,4.1*3C
$GPGSV,3,1,12,30,76,181,31,23,76,028,,10,62,168,42,07,61,059,39*70
$GPGSV,3,2,12,13,53,287,49,05,49,299,49,09,35,085,42,04,10,206,*7D
$GPGSV,3,3,12,02,10,324,,01,06,082,,28,05,168,22,24,00,188,*76
$GPRMC,173143.000,A,4628.3796,N,01119.0973,E,21.49,36.70,091214,,*05
$GPVTG,36.70,T,,M,21.49,N,39.8,K*5E
$GPZDA,173144.000,09,12,2014,,*5F
$GPGGA,173144.000,4628.3843,N,01119.1028,E,1,06,2.0,248.4,M,47.6,M,,0000*54
$GPGLL,4628.3843,N,01119.1028,E,173144.000,A*37
$GPGSA,A,3,10,09,30,05,13,07,,,,,,,4.6,2.0,4.1*3C
$GPGSV,3,1,12,30,76,181,31,23,76,028,,10,62,168,42,07,61,059,39*70
$GPGSV,3,2,12,13,53,287,49,05,49,299,49,09,35,085,42,04,10,206,*7D
$GPGSV,3,3,12,02,10,324,,01,06,082,,28,05,168,21,24,00,188,*75
$GPRMC,173144.000,A,4628.3843,N,01119.1028,E,21.74,39.99,091214,,*05
$GPVTG,39.99,T,,M,21.74,N,40.3,K*5D
$GPZDA,173145.000,09,12,2014,,*5E
$GPGGA,173145.000,4628.3889,N,01119.1086,E,1,06,2.0,248.6,M,47.6,M,,0000*55
$GPGLL,4628.3889,N,01119.1086,E,173145.000,A*34
$GPGSA,A,3,10,09,30,05,13,07,,,,,,,4.6,2.0,4.1*3C
$GPGSV,3,1,12,30,76,181,31,23,76,028,,10,62,168,43,07,61,059,39*71
$GPGSV,3,2,12,13,53,287,49,05,49,299,49,09,35,085,42,04,10,206,*7D
$GPGSV,3,3,12,02,10,324,,01,06,082,,28,05,168,21,24,00,188,*75
$GPRMC,173145.000,A,4628.3889,N,01119.1086,E,21.82,41.53,091214,,*06
$GPVTG,41.53,T,,M,21.82,N,40.4,K*5A
$GPZDA,173146.000,09,12,2014,,*5D
$GPGGA,173146.000,4628.3934,N,01119.1144,E,1,06,2.0,248.6,M,47.6,M,,0000*5E
$GPGLL,4628.3934,N,01119.1144,E,173146.000,A*3F
$GPGSA,A,3,10,09,30,05,13,07,,,,,,,4.6,2.0,4.1*3C
$GPGSV,3,1,12,30,76,181,31,23,76,028,,10,62,168,43,07,61,059,40*7F
$GPGSV,3,2,12,13,53,287,49,05,49,299,49,09,35,085,42,04,10,206,*7D
$GPGSV,3,3,12,02,10,324,,01,06,082,,28,05,168,24,24,00,188,*70
$GPRMC,173146.000,A,4628.3934,N,01119.1144,E,21.08,42.14,091214,,*0F
$GPVTG,42.14,T,,M,21.08,N,39.0,K*52
$GPZDA,173147.000,09,12,2014,,*5C
$GPGGA,173147.000,4628.3977,N,01119.1201,E,1,06,2.0,248.8,M,47.6,M,,0000*54
$GPGLL,4628.3977,N,01119.1201,E,173147.000,A*3B
$GPGSA,A,3,10,09,30,05,13,07,,,,,,,4.6,2.0,4.1*3C
$GPGSV,3,1,12,30,76,181,31,23,76,029,,10,61,168,43,07,61,059,40*7D
$GPGSV,3,2,12,13,53,287,49,05,49,299,49,09,35,086,42,04,10,206,*7E
$GPGSV,3,3,12,02,10,324,,01,06,082,,28,05,168,31,24,00,188,*74
$GPRMC,173147.000,A,4628.3977,N,01119.1201,E,20.38,42.77,091214,,*0C
$GPVTG,42.77,T,,M,20.38,N,37.8,K*53
$GPZDA,173148.000,09,12,2014,,*53
$GPGGA,173148.000,4628.4017,N,01119.1256,E,1,06,2.0,248.9,M,47.6,M,,0000*50
$GPGLL,4628.4017,N,01119.1256,E,173148.000,A*3E
$GPGSA,A,3,10,09,30,05,13,07,,,,,,,4.6,2.0,4.1*3C
$GPGSV,3,1,12,30,76,181,32,23,76,029,,10,61,168,44,07,61,059,40*79
$GPGSV,3,2,12,13,53,287,49,05,49,299,49,09,35,086,42,04,10,206,*7E
$GPGSV,3,3,12,02,10,324,,01,06,082,,28,05,168,30,24,00,188,*75
$GPRMC,173148.000,A,4628.4017,N,01119.1256,E,19.33,43.80,091214,,*01
$GPVTG,43.80,T,,M,19.33,N,35.8,K*59
$GPZDA,173149.000,09,12,2014,,*52
$GPGGA,173149.000,4628.4052,N,01119.1309,E,1,06,2.0,248.8,M,47.6,M,,0000*5A
$GPGLL,4628.4052,N,01119.1309,E,173149.000,A*35
$GPGSA,A,3,10,09,30,05,13,07,,,,,,,4.6,2.0,4.1*3C
$GPGSV,3,1,12,30,76,181,32,23,76,029,,10,61,168,44,07,61,059,40*79
$GPGSV,3,2,12,13,53,287,48,05,49,299,49,09,35,086,42,04,10,206,*7F
$GPGSV,3,3,12,02,10,324,,01,06,082,,28,05,168,29,24,00,188,*7D
$GPRMC,173149.000,A,4628.4052,N,01119.1309,E,17.42,47.84,091214,,*02
$GPVTG,47.84,T,,M,17.42,N,32.3,K*5D
$GPZDA,173150.000,09,12,2014,,*5A
$GPGGA,173150.000,4628.4079,N,01119.1362,E,1,06,2.0,248.9,M,47.6,M,,0000*57
$GPGLL,4628.4079,N,01119.1362,E,173150.000,A*39
$GPGSA,A,3,10,09,30,05,13,07,,,,,,,4.6,2.0,4.1*3C
$GPGSV,3,1,12,30,76,181,38,23,76,029,,10,61,168,45,07,61,059,46*74
$GPGSV,3,2,12,13,53,287,43,05,49,299,48,09,35,086,42,04,10,206,*75
$GPGSV,3,3,12,02,10,324,,01,06,082,,28,05,168,29,24,00,188,*7D
$GPRMC,173150.000,A,4628.4079,N,01119.1362,E,15.14,58.22,091214,,*0D
$GPVTG,58.22,T,,M,15.14,N,28.0,K*56
$GPZDA,173151.000,09,12,2014,,*5B
$GPGGA,173151.000,4628.4095,N,01119.1415,E,1,06,2.0,248.7,M,47.6,M,,0000*5D
$GPGLL,4628.4095,N,01119.1415,E,173151.000,A*3D
$GPGSA,A,3,10,09,30,05,13,07,,,,,,,4.6,2.0,4.1*3C
$GPGSV,3,1,12,30,76,181,41,23,76,029,,10,61,168,45,07,61,059,48*74
$GPGSV,3,2,12,13,53,287,38,05,49,299,43,09,35,086,42,04,10,206,*72
$GPGSV,3,3,12,02,10,324,,01,06,082,,28,05,168,31,24,00,188,*74
$GPRMC,173151.000,A,4628.4095,N,01119.1415,E,14.26,74.17,091214,,*01
$GPVTG,74.17,T,,M,14.26,N,26.4,K*54
$GPZDA,173152.000,09,12,2014,,*58
$GPGGA,173152.000,4628.4097,N,01119.1474,E,1,06,2.0,248.5,M,47.6,M,,0000*59
$GPGLL,4628.4097,N,01119.1474,E,173152.000,A*3B
$GPGSA,A,3,10,09,30,05,13,07,,,,,,,4.6,2.0,4.1*3C
$GPGSV,3,1,12,30,76,181,41,23,76,029,,10,61,168,45,07,61,059,49*75
$GPGSV,3,2,12,13,53,287,29,05,49,299,33,09,35,086,46,04,10,206,*71
$GPGSV,3,3,12,02,10,324,,01,06,082,,28,05,168,40,24,00,188,*72
$GPRMC,173152.000,A,4628.4097,N,01119.1474,E,15.31,96.34,091214,,*0D
$GPVTG,96.34,T,,M,15.31,N,28.3,K*57
$GPZDA,173153.000,09,12,2014,,*59
$GPGGA,173153.000,4628.4083,N,01119.1539,E,1,06,2.0,248.7,M,47.6,M,,0000*57
$GPGLL,4628.4083,N,01119.1539,E,173153.000,A*37
$GPGSA,A,3,10,09,30,05,13,07,,,,,,,4.6,2.0,4.1*3C
$GPGSV,3,1,12,30,76,181,41,23,76,029,,10,61,168,45,07,61,059,49*75
$GPGSV,3,2,12,13,53,287,27,05,49,299,32,09,35,086,48,04,10,206,*70
$GPGSV,3,3,12,02,10,324,,01,06,082,,28,05,168,41,24,00,188,*73
$GPRMC,173153.000,A,4628.4083,N,01119.1539,E,17.56,112.50,091214,,*3D
$GPVTG,112.50,T,,M,17.56,N,32.5,K*66
$GPZDA,173154.000,09,12,2014,,*5E
$GPGGA,173154.000,4628.4062,N,01119.1608,E,1,06,2.0,248.8,M,47.6,M,,0000*51
$GPGLL,4628.4062,N,01119.1608,E,173154.000,A*3E
$GPGSA,A,3,10,09,30,05,13,07,,,,,,,4.6,2.0,4.1*3C
$GPGSV,3,1,12,30,76,181,41,23,76,029,,10,61,168,45,07,61,059,49*75
$GPGSV,3,2,12,13,53,287,27,05,49,299,32,09,35,086,48,04,10,206,*70
$GPGSV,3,3,12,02,10,324,,01,06,082,,28,05,168,42,24,00,188,*70
$GPRMC,173154.000,A,4628.4062,N,01119.1608,E,19.00,112.90,091214,,*35
$GPVTG,112.90,T,,M,19.00,N,35.2,K*67
$GPZDA,173155.000,09,12,2014,,*5F
$GPGGA,173155.000,4628.4038,N,01119.1684,E,1,06,2.0,249.2,M,47.6,M,,0000*50
$GPGLL,4628.4038,N,01119.1684,E,173155.000,A*34
$GPGSA,A,3,10,09,30,05,13,07,,,,,,,4.6,2.0,4.1*3C
$GPGSV,3,1,12,30,76,181,40,23,76,029,,10,61,168,45,07,61,059,49*74
$GPGSV,3,2,12,13,53,287,27,05,49,299,31,09,35,086,48,04,10,206,*73
$GPGSV,3,3,12,02,10,324,,01,06,082,,28,05,168,40,24,00,188,*72
$GPRMC,173155.000,A,4628.4038,N,01119.1684,E,20.59,113.20,091214,,*33
$GPVTG,113.20,T,,M,20.59,N,38.1,K*65
$GPZDA,173156.000,09,12,2014,,*5C
$GPGGA,173156.000,4628.4013,N,01119.1765,E,1,06,2.0,249.7,M,47.6,M,,0000*51
$GPGLL,4628.4013,N,01119.1765,E,173156.000,A*30
$GPGSA,A,3,10,09,30,05,13,07,,,,,,,4.6,2.0,4.1*3C
$GPGSV,3,1,12,30,76,181,40,23,76,029,,10,61,168,45,07,61,059,49*74
$GPGSV,3,2,12,13,53,287,27,05,49,299,31,09,35,086,48,04,10,206,*73
$GPGSV,3,3,12,02,10,324,,01,06,082,,28,05,168,35,24,00,188,*70
$GPRMC,173156.000,A,4628.4013,N,01119.1765,E,21.80,113.03,091214,,*33
$GPVTG,113.03,T,,M,21.80,N,40.4,K*6B
$GPZDA,173157.000,09,12,2014,,*5D
$GPGGA,173157.000,4628.3987,N,01119.1851,E,1,06,2.0,250.2,M,47.6,M,,0000*56
$GPGLL,4628.3987,N,01119.1851,E,173157.000,A*3A
$GPGSA,A,3,10,09,30,05,13,07,,,,,,,4.6,2.0,4.1*3C
$GPGSV,3,1,12,30,76,181,40,23,76,029,,10,61,168,45,07,61,059,49*74
$GPGSV,3,2,12,13,53,287,28,05,49,299,31,09,35,086,48,04,10,206,*7C
$GPGSV,3,3,12,02,10,324,,01,06,082,,28,05,168,35,24,00,188,*70
$GPRMC,173157.000,A,4628.3987,N,01119.1851,E,23.20,113.04,091214,,*36
$GPVTG,113.04,T,,M,23.20,N,43.0,K*63
$GPZDA,173158.000,09,12,2014,,*52
$GPGGA,173158.000,4628.3960,N,01119.1940,E,1,06,2.0,250.7,M,47.6,M,,0000*54
$GPGLL,4628.3960,N,01119.1940,E,173158.000,A*3D
$GPGSA,A,3,10,09,30,05,13,07,,,,,,,4.6,2.0,4.1*3C
$GPGSV,3,1,12,30,76,181,40,23,76,029,,10,61,168,45,07,61,059,49*74
$GPGSV,3,2,12,13,53,287,28,05,49,299,31,09,35,086,48,04,10,206,*7C
$GPGSV,3,3,12,02,10,324,,01,06,082,,28,05,168,39,24,00,188,*7C
$GPRMC,173158.000,A,4628.3960,N,01119.1940,E,23.61,112.67,091214,,*30
$GPVTG,112.67,T,,M,23.61,N,43.7,K*65
$GPZDA,173159.000,09,12,2014,,*53
$GPGGA,173159.000,4628.3934,N,01119.2029,E,1,06,2.0,251.3,M,47.6,M,,0000*54
$GPGLL,4628.3934,N,01119.2029,E,173159.000,A*38
$GPGSA,A,3,10,09,30,05,13,07,,,,,,,4.6,2.0,4.1*3C
$GPGSV,3,1,12,30,76,181,40,23,76,029,,10,61,168,45,07,61,059,49*74
$GPGSV,3,2,12,13,53,287,28,05,49,299,31,09,35,086,48,04,10,206,*7C
$GPGSV,3,3,12,02,10,324,,01,06,082,,28,05,168,42,24,00,188,*70
$GPRMC,173159.000,A,4628.3934,N,01119.2029,E,23.13,112.70,091214,,*36
$GPVTG,112.70,T,,M,23.13,N,42.8,K*68
$GPZDA,173200.000,09,12,2014,,*5C
$GPGGA,173200.000,4628.3908,N,01119.2117,E,1,06,2.0,251.9,M,47.6,M,,0000*52
$GPGLL,4628.3908,N,01119.2117,E,173200.000,A*34
$GPGSA,A,3,10,09,30,05,13,07,,,,,,,4.6,2.0,4.1*3C
$GPGSV,3,1,12,30,76,181,40,23,76,029,,10,61,168,45,07,61,059,49*74
$GPGSV,3,2,12,13,53,287,28,05,49,299,31,09,35,086,48,04,10,206,*7C
$GPGSV,3,3,12,02,10,324,,01,06,082,,28,05,168,42,24,00,188,*70
$GPRMC,173200.000,A,4628.3908,N,01119.2117,E,23.02,112.98,091214,,*3C
$GPVTG,112.98,T,,M,23.02,N,42.6,K*60
$GPZDA,173201.000,09,12,2014,,*5D
$GPGGA,173201.000,4628.3881,N,01119.2206,E,1,06,2.0,252.4,M,47.6,M,,0000*5E
$GPGLL,4628.3881,N,01119.2206,E,173201.000,A*36
$GPGSA,A,3,10,09,30,05,13,07,,,,,,,4.6,2.0,4.1*3C
$GPGSV,3,1,12,30,76,181,40,23,76,029,,10,61,168,45,07,61,059,49*74
$GPGSV,3,2,12,13,53,287,28,05,49,299,31,09,35,086,48,04,10,206,*7C
$GPGSV,3,3,12,02,10,324,,01,06,082,,28,05,168,43,24,00,188,*71
$GPRMC,173201.000,A,4628.3881,N,01119.2206,E,23.71,113.41,091214,,*3F
$GPVTG,113.41,T,,M,23.71,N,43.9,K*6F
$GPZDA,173202.000,09,12,2014,,*5E
$GPGGA,173202.000,4628.3853,N,01119.2296,E,1,06,2.0,253.0,M,47.6,M,,0000*5E
$GPGLL,4628.3853,N,01119.2296,E,173202.000,A*33
$GPGSA,A,3,10,09,30,05,13,07,,,,,,,4.6,2.0,4.1*3C
$GPGSV,3,1,12,30,76,181,40,23,76,029,,10,61,168,45,07,61,059,49*74
$GPGSV,3,2,12,13,53,287,28,05,49,299,31,09,35,086,48,04,10,206,*7C
$GPGSV,3,3,12,02,10,324,,01,06,082,,28,05,168,42,24,00,188,*70
$GPRMC,173202.000,A,4628.3853,N,01119.2296,E,24.06,113.61,091214,,*3F
$GPVTG,113.61,T,,M,24.06,N,44.6,K*62
$GPZDA,173203.000,09,12,2014,,*5F
$GPGGA,173203.000,4628.3825,N,01119.2388,E,1,06,2.0,253.6,M,47.6,M,,0000*56
$GPGLL,4628.3825,N,01119.2388,E,173203.000,A*3D
$GPGSA,A,3,10,09,30,05,13,07,,,,,,,4.6,2.0,4.1*3C
$GPGSV,3,1,12,30,76,181,40,23,76,029,,10,61,168,45,07,61,059,49*74
$GPGSV,3,2,12,13,53,287,28,05,49,299,31,09,35,086,48,04,10,206,*7C
$GPGSV,3,3,12,02,10,324,,01,06,082,,28,05,168,36,24,00,188,*73
$GPRMC,173203.000,A,4628.3825,N,01119.2388,E,24.23,113.44,091214,,*31
$GPVTG,113.44,T,,M,24.23,N,44.9,K*6D
$GPZDA,173204.000,09,12,2014,,*58
$GPGGA,173204.000,4628.3797,N,01119.2480,E,1,06,2.0,254.2,M,47.6,M,,0000*5B
$GPGLL,4628.3797,N,01119.2480,E,173204.000,A*33
$GPGSA,A,3,10,09,30,05,13,07,,,,,,,4.6,2.0,4.1*3C
$GPGSV,3,1,12,30,76,181,40,23,76,029,,10,61,168,45,07,61,059,49*74
$GPGSV,3,2,12,13,53,287,27,05,49,299,31,09,35,086,45,04,10,206,*7E
$GPGSV,3,3,12,02,10,324,,01,06,082,,28,05,168,32,24,00,188,*77
$GPRMC,173204.000,A,4628.3797,N,01119.2480,E,24.57,112.86,091214,,*33
$GPVTG,112.86,T,,M,24.57,N,45.5,K*6C
$GPZDA,173205.000,09,12,2014,,*59
$GPGGA,173205.000,4628.3769,N,01119.2574,E,1,06,2.0,254.6,M,47.6,M,,0000*55
$GPGLL,4628.3769,N,01119.2574,E,173205.000,A*39
$GPGSA,A,3,10,09,30,05,13,07,,,,,,,4.6,2.0,4.1*3C
$GPGSV,3,1,12,30,76,181,39,23,76,029,,10,61,168,45,07,61,059,49*7A
$GPGSV,3,2,12,13,53,287,27,05,49,299,31,09,35,086,41,04,10,206,*7A
$GPGSV,3,3,12,02,10,324,,01,06,082,,28,05,168,27,24,00,188,*73
$GPRMC,173205.000,A,4628.3769,N,01119.2574,E,24.75,112.68,091214,,*39
$GPVTG,112.68,T,,M,24.75,N,45.8,K*61
$GPZDA,173206.000,09,12,2014,,*5A
$GPGGA,173206.000,4628.3742,N,01119.2667,E,1,06,2.0,255.0,M,47.6,M,,0000*59
$GPGLL,4628.3742,N,01119.2667,E,173206.000,A*32
$GPGSA,A,3,10,09,30,05,13,07,,,,,,,4.6,2.0,4.1*3C
$GPGSV,3,1,12,30,76,181,39,23,76,029,,10,61,168,45,07,61,059,49*7A
$GPGSV,3,2,12,13,53,287,27,05,49,299,31,09,35,086,45,04,10,206,*7E
$GPGSV,3,3,12,02,10,324,,01,06,082,,28,05,168,,24,00,188,*76
$GPRMC,173206.000,A,4628.3742,N,01119.2667,E,24.75,112.70,091214,,*3B
$GPVTG,112.70,T,,M,24.75,N,45.8,K*68
$GPZDA,173207.000,09,12,2014,,*5B
$GPGGA,173207.000,4628.3714,N,01119.2762,E,1,06,2.0,255.5,M,47.6,M,,0000*5A
$GPGLL,4628.3714,N,01119.2762,E,173207.000,A*34
$GPGSA,A,3,10,09,30,05,13,07,,,,,,,4.6,2.0,4.1*3C
$GPGSV,3,1,12,30,76,181,39,23,76,029,,10,61,168,45,07,61,059,49*7A
$GPGSV,3,2,12,13,53,287,27,05,49,299,31,09,35,086,47,04,10,206,*7C
$GPGSV,3,3,12,02,10,324,,01,06,082,,28,05,168,,24,00,188,*76
$GPRMC,173207.000,A,4628.3714,N,01119.2762,E,25.02,112.91,091214,,*33
$GPVTG,112.91,T,,M,25.02,N,46.3,K*6E
$GPZDA,173208.000,09,12,2014,,*54
$GPGGA,173208.000,4628.3685,N,01119.2857,E,1,06,2.0,256.1,M,47.6,M,,0000*52
$GPGLL,4628.3685,N,01119.2857,E,173208.000,A*3B
$GPGSA,A,3,10,09,30,05,13,07,,,,,,,4.6,2.0,4.1*3C
$GPGSV,3,1,12,30,76,181,39,23,76,029,,10,61,168,44,07,61,059,49*7B
$GPGSV,3,2,12,13,53,287,27,05,49,299,31,09,35,086,47,04,10,206,*7C
$GPGSV,3,3,12,02,10,324,,01,06,082,,28,05,168,,24,00,188,*76
$GPRMC,173208.000,A,4628.3685,N,01119.2857,E,24.98,113.12,091214,,*34
$GPVTG,113.12,T,,M,24.98,N,46.3,K*66
$GPZDA,173209.000,09,12,2014,,*55
$GPGGA,173209.000,4628.3658,N,01119.2949,E,1,06,2.0,256.0,M,47.6,M,,0000*5C
$GPGLL,4628.3658,N,01119.2949,E,173209.000,A*34
$GPGSA,A,3,10,09,30,05,13,07,,,,,,,4.6,2.0,4.1*3C
$GPGSV,3,1,12,30,76,181,39,23,76,029,,10,61,168,44,07,61,059,49*7B
$GPGSV,3,2,12,13,53,287,27,05,49,299,31,09,35,086,47,04,10,206,*7C
$GPGSV,3,3,12,02,10,324,,01,06,082,,28,05,168,,24,00,188,*76
$GPRMC,173209.000,A,4628.3658,N,01119.2949,E,24.87,112.85,091214,,*3A
$GPVTG,112.85,T,,M,24.87,N,46.1,K*65
$GPZDA,173210.000,09,12,2014,,*5D
$GPGGA,173210.000,4628.3630,N,01119.3042,E,1,06,2.0,256.2,M,47.6,M,,0000*5B
$GPGLL,4628.3630,N,01119.3042,E,173210.000,A*31
$GPGSA,A,3,10,09,30,05,13,07,,,,,,,4.6,2.0,4.1*3C
$GPGSV,3,1,12,30,76,181,39,23,76,029,,10,61,168,44,07,61,059,49*7B
$GPGSV,3,2,12,13,53,287,27,05,49,299,31,09,35,086,47,04,10,206,*7C
$GPGSV,3,3,12,02,10,324,,01,06,082,,28,05,168,,24,00,188,*76
$GPRMC,173210.000,A,4628.3630,N,01119.3042,E,25.17,113.13,091214,,*39
$GPVTG,113.13,T,,M,25.17,N,46.6,K*64
$GPZDA,173211.000,09,12,2014,,*5C
$GPGGA,173211.000,4628.3602,N,01119.3136,E,1,06,2.0,256.3,M,47.6,M,,0000*58
$GPGLL,4628.3602,N,01119.3136,E,173211.000,A*33
$GPGSA,A,3,10,09,30,05,13,07,,,,,,,4.6,2.0,4.1*3C
$GPGSV,3,1,12,30,76,181,39,23,76,029,,10,61,168,44,07,61,059,49*7B
$GPGSV,3,2,12,13,53,287,27,05,49,299,31,09,35,086,48,04,10,206,*73
$GPGSV,3,3,12,02,10,324,,01,06,082,,28,05,168,,24,00,188,*76
$GPRMC,173211.000,A,4628.3602,N,01119.3136,E,25.17,113.11,091214,,*39
$GPVTG,113.11,T,,M,25.17,N,46.6,K*66
$GPZDA,173212.000,09,12,2014,,*5F
$GPGGA,173212.000,4628.3574,N,01119.3231,E,1,06,2.0,256.6,M,47.6,M,,0000*58
$GPGLL,4628.3574,N,01119.3231,E,173212.000,A*36
$GPGSA,A,3,10,09,30,05,13,07,,,,,,,4.5,2.0,4.1*3F
$GPGSV,3,1,12,30,76,181,39,23,76,029,,10,61,168,44,07,61,059,49*7B
$GPGSV,3,2,12,13,53,287,27,05,49,299,31,09,35,086,48,04,10,206,*73
$GPGSV,3,3,12,02,10,324,,01,06,082,,28,05,168,33,24,00,188,*76
$GPRMC,173212.000,A,4628.3574,N,01119.3231,E,25.45,113.08,091214,,*33
$GPVTG,113.08,T,,M,25.45,N,47.1,K*6F
$GPZDA,173213.000,09,12,2014,,*5E
$GPGGA,173213.000,4628.3546,N,01119.3327,E,1,06,2.0,256.9,M,47.6,M,,0000*51
$GPGLL,4628.3546,N,01119.3327,E,173213.000,A*30
$GPGSA,A,3,10,09,30,05,13,07,,,,,,,4.5,2.0,4.1*3F
$GPGSV,3,1,12,30,76,181,39,23,76,029,,10,61,168,44,07,61,059,49*7B
$GPGSV,3,2,12,13,53,287,27,05,49,299,31,09,35,086,48,04,10,206,*73
$GPGSV,3,3,12,02,10,324,,01,06,082,,28,05,168,33,24,00,188,*76
$GPRMC,173213.000,A,4628.3546,N,01119.3327,E,25.46,113.05,091214,,*3B
$GPVTG,113.05,T,,M,25.46,N,47.2,K*62
$GPZDA,173214.000,09,12,2014,,*59
$GPGGA,173214.000,4628.3518,N,01119.3421,E,1,06,2.0,256.8,M,47.6,M,,0000*5D
$GPGLL,4628.3518,N,01119.3421,E,173214.000,A*3D
$GPGSA,A,3,10,09,30,05,13,07,,,,,,,4.5,2.0,4.1*3F
$GPGSV,3,1,12,30,76,181,39,23,76,029,,10,61,168,45,07,61,059,49*7A
$GPGSV,3,2,12,13,53,287,27,05,49,299,31,09,35,086,48,04,10,206,*73
$GPGSV,3,3,12,02,10,324,,01,06,082,,28,05,168,36,24,00,188,*73
$GPRMC,173214.000,A,4628.3518,N,01119.3421,E,25.56,112.85,091214,,*3E
$GPVTG,112.85,T,,M,25.56,N,47.3,K*6B
$GPZDA,173215.000,09,12,2014,,*58
$GPGGA,173215.000,4628.3490,N,01119.3518,E,1,06,2.0,257.1,M,47.6,M,,0000*5E
$GPGLL,4628.3490,N,01119.3518,E,173215.000,A*36
$GPGSA,A,3,10,09,30,05,13,07,,,,,,,4.5,2.0,4.1*3F
$GPGSV,3,1,12,30,76,181,39,23,76,029,,10,61,168,45,07,61,059,49*7A
$GPGSV,3,2,12,13,53,287,27,05,49,299,31,09,35,086,48,04,10,206,*73
$GPGSV,3,3,12,02,10,324,,01,06,082,,28,05,168,39,24,00,188,*7C
$GPRMC,173215.000,A,4628.3490,N,01119.3518,E,25.56,112.80,091214,,*30
$GPVTG,112.80,T,,M,25.56,N,47.3,K*6E
$GPZDA,173216.000,09,12,2014,,*5B
$GPGGA,173216.000,4628.3461,N,01119.3614,E,1,06,2.0,257.5,M,47.6,M,,0000*58
$GPGLL,4628.3461,N,01119.3614,E,173216.000,A*34
$GPGSA,A,3,10,09,30,05,13,07,,,,,,,4.5,2.0,4.1*3F
$GPGSV,3,1,12,30,76,181,39,23,76,029,,10,61,168,45,07,61,059,49*7A
$GPGSV,3,2,12,13,53,287,27,05,49,299,31,09,35,086,48,04,10,206,*73
$GPGSV,3,3,12,02,10,324,,01,06,082,,28,05,168,38,24,00,188,*7D
$GPRMC,173216.000,A,4628.3461,N,01119.3614,E,25.46,113.09,091214,,*33
$GPVTG,113.09,T,,M,25.46,N,47.1,K*6D
$GPZDA,173217.000,09,12,2014,,*5A
$GPGGA,173217.000,4628.3434,N,01119.3707,E,1,06,2.0,257.3,M,47.6,M,,0000*5C
$GPGLL,4628.3434,N,01119.3707,E,173217.000,A*36
$GPGSA,A,3,10,09,30,05,13,07,,,,,,,4.5,2.0,4.1*3F
$GPGSV,3,1,12,30,76,180,39,23,76,030,,10,61,167,45,07,61,059,49*7C
$GPGSV,3,2,12,13,53,287,27,05,50,299,31,09,34,086,49,04,10,206,*7B
$GPGSV,3,3,12,02,10,324,,01,06,082,,28,06,168,39,24,00,188,*7F
$GPRMC,173217.000,A,4628.3434,N,01119.3707,E,25.42,113.02,091214,,*3E
$GPVTG,113.02,T,,M,25.42,N,47.1,K*62
$GPZDA,173218.000,09,12,2014,,*55
$GPGGA,173218.000,4628.3406,N,01119.3802,E,1,06,2.0,257.3,M,47.6,M,,0000*58
$GPGLL,4628.3406,N,01119.3802,E,173218.000,A*32
$GPGSA,A,3,10,09,30,05,13,07,,,,,,,4.5,2.0,4.1*3F
$GPGSV,3,1,12,30,76,180,39,23,76,030,,10,61,167,45,07,61,059,49*7C
$GPGSV,3,2,12,13,53,287,27,05,50,299,31,09,34,086,49,04,10,206,*7B
$GPGSV,3,3,12,02,10,324,,01,06,082,,28,06,168,33,24,00,188,*75
$GPRMC,173218.000,A,4628.3406,N,01119.3802,E,25.55,112.90,091214,,*36
$GPVTG,112.90,T,,M,25.55,N,47.3,K*6C
$GPZDA,173219.000,09,12,2014,,*54
$GPGGA,173219.000,4628.3378,N,01119.3897,E,1,06,2.0,257.4,M,47.6,M,,0000*5C
$GPGLL,4628.3378,N,01119.3897,E,173219.000,A*31
$GPGSA,A,3,10,09,30,05,13,07,,,,,,,4.5,2.0,4.1*3F
$GPGSV,3,1,12,30,76,180,39,23,76,030,,10,61,167,45,07,61,059,49*7C
$GPGSV,3,2,12,13,53,287,27,05,50,299,31,09,34,086,49,04,10,206,*7B
$GPGSV,3,3,12,02,10,324,,01,06,082,,28,06,168,35,24,00,188,*73
$GPRMC,173219.000,A,4628.3378,N,01119.3897,E,25.36,112.56,091214,,*3A
$GPVTG,112.56,T,,M,25.36,N,47.0,K*60
$GPZDA,173220.000,09,12,2014,,*5E
$GPGGA,173220.000,4628.3352,N,01119.3990,E,1,06,2.0,257.4,M,47.6,M,,0000*58
$GPGLL,4628.3352,N,01119.3990,E,173220.000,A*35
$GPGSA,A,3,10,09,30,05,13,07,,,,,,,4.5,2.0,4.1*3F
$GPGSV,3,1,12,30,76,180,39,23,76,030,,10,61,167,45,07,61,059,49*7C
$GPGSV,3,2,12,13,53,287,27,05,50,299,31,09,34,086,49,04,10,206,*7B
$GPGSV,3,3,12,02,10,324,,01,06,082,,28,06,168,36,24,00,188,*70
$GPRMC,173220.000,A,4628.3352,N,01119.3990,E,25.01,112.38,091214,,*32
$GPVTG,112.38,T,,M,25.01,N,46.3,K*6E
$GPZDA,173221.000,09,12,2014,,*5F
$GPGGA,173221.000,4628.3325,N,01119.4083,E,1,06,2.0,257.4,M,47.6,M,,0000*55
$GPGLL,4628.3325,N,01119.4083,E,173221.000,A*38
$GPGSA,A,3,10,09,30,05,13,07,,,,,,,4.5,2.0,4.1*3F
$GPGSV,3,1,12,30,76,180,39,23,76,030,,10,61,167,45,07,61,059,49*7C
$GPGSV,3,2,12,13,53,287,27,05,50,299,31,09,34,086,49,04,10,206,*7B
$GPGSV,3,3,12,02,10,324,,01,06,082,,28,06,168,37,24,00,188,*71
$GPRMC,173221.000,A,4628.3325,N,01119.4083,E,24.97,112.24,091214,,*3C
$GPVTG,112.24,T,,M,24.97,N,46.2,K*6C
$GPZDA,173222.000,09,12,2014,,*5C
$GPGGA,173222.000,4628.3299,N,01119.4175,E,1,06,2.0,257.5,M,47.6,M,,0000*59
$GPGLL,4628.3299,N,01119.4175,E,173222.000,A*35
$GPGSA,A,3,10,09,30,05,13,07,,,,,,,4.5,2.0,4.1*3F
$GPGSV,3,1,12,30,76,180,39,23,76,030,,10,61,167,45,07,61,059,49*7C
$GPGSV,3,2,12,13,53,287,28,05,50,299,31,09,34,086,49,04,10,206,*74
$GPGSV,3,3,12,02,10,324,,01,06,082,,28,06,168,37,24,00,188,*71
$GPRMC,173222.000,A,4628.3299,N,01119.4175,E,24.30,112.83,091214,,*31
$GPVTG,112.83,T,,M,24.30,N,45.0,K*6D
$GPZDA,173223.000,09,12,2014,,*5D
$GPGGA,173223.000,4628.3273,N,01119.4263,E,1,06,2.0,257.4,M,47.6,M,,0000*59
$GPGLL,4628.3273,N,01119.4263,E,173223.000,A*34
$GPGSA,A,3,10,09,30,05,13,07,,,,,,,4.5,2.0,4.1*3F
$GPGSV,3,1,12,30,76,180,39,23,76,030,,10,61,167,45,07,61,059,49*7C
$GPGSV,3,2,12,13,53,287,28,05,50,299,31,09,34,086,49,04,10,206,*74
$GPGSV,3,3,12,02,10,324,,01,06,082,,28,06,168,36,24,00,188,*70
$GPRMC,173223.000,A,4628.3273,N,01119.4263,E,23.48,113.28,091214,,*38
$GPVTG,113.28,T,,M,23.48,N,43.5,K*66
$GPZDA,173224.000,09,12,2014,,*5A
$GPGGA,173224.000,4628.3246,N,01119.4350,E,1,06,2.0,257.9,M,47.6,M,,0000*54
$GPGLL,4628.3246,N,01119.4350,E,173224.000,A*34
$GPGSA,A,3,10,09,30,05,13,07,,,,,,,4.5,2.0,4.1*3F
$GPGSV,3,1,12,30,76,180,39,23,76,030,,10,61,167,45,07,61,059,49*7C
$GPGSV,3,2,12,13,53,287,28,05,50,299,31,09,34,086,49,04,10,206,*74
$GPGSV,3,3,12,02,10,324,,01,06,082,,28,06,168,41,24,00,188,*70
$GPRMC,173224.000,A,4628.3246,N,01119.4350,E,22.70,113.67,091214,,*39
$GPVTG,113.67,T,,M,22.70,N,42.0,K*63
$GPZDA,173225.000,09,12,2014,,*5B
$GPGGA,173225.000,4628.3222,N,01119.4433,E,1,06,2.0,258.3,M,47.6,M,,0000*50
$GPGLL,4628.3222,N,01119.4433,E,173225.000,A*35
$GPGSA,A,3,10,09,30,05,13,07,,,,,,,4.5,2.0,4.1*3F
$GPGSV,3,1,12,30,76,180,39,23,76,030,,10,61,167,45,07,61,059,49*7C
$GPGSV,3,2,12,13,53,287,28,05,50,299,31,09,34,086,49,04,10,206,*74
$GPGSV,3,3,12,02,10,324,,01,06,082,,28,06,168,45,24,00,188,*74
$GPRMC,173225.000,A,4628.3222,N,01119.4433,E,21.57,112.65,091214,,*3D
$GPVTG,112.65,T,,M,21.57,N,39.9,K*63
$GPZDA,173226.000,09,12,2014,,*58
$GPGGA,173226.000,4628.3199,N,01119.4512,E,1,06,2.0,258.6,M,47.6,M,,0000*57
$GPGLL,4628.3199,N,01119.4512,E,173226.000,A*37
$GPGSA,A,3,10,09,30,05,13,07,,,,,,,4.5,2.0,4.1*3F
$GPGSV,3,1,12,30,76,180,39,23,76,030,,10,61,167,45,07,61,059,49*7C
$GPGSV,3,2,12,13,53,287,28,05,50,299,31,09,34,086,49,04,10,206,*74
$GPGSV,3,3,12,02,10,324,,01,06,082,,28,06,168,45,24,00,188,*74
$GPRMC,173226.000,A,4628.3199,N,01119.4512,E,20.31,111.97,091214,,*30
$GPVTG,111.97,T,,M,20.31,N,37.6,K*6D
$GPZDA,173227.000,09,12,2014,,*59
$GPGGA,173227.000,4628.3179,N,01119.4584,E,1,06,2.0,258.7,M,47.6,M,,0000*56
$GPGLL,4628.3179,N,01119.4584,E,173227.000,A*37
$GPGSA,A,3,10,09,30,05,13,07,,,,,,,4.5,2.0,4.1*3F
$GPGSV,3,1,12,30,76,180,39,23,76,030,,10,61,167,45,07,61,059,49*7C
$GPGSV,3,2,12,13,53,287,28,05,50,299,31,09,34,086,49,04,10,206,*74
$GPGSV,3,3,12,02,10,324,,01,06,082,,28,06,168,45,24,00,188,*74
$GPRMC,173227.000,A,4628.3179,N,01119.4584,E,18.47,113.25,091214,,*31
$GPVTG,113.25,T,,M,18.47,N,34.2,K*6B
$GPZDA,173228.000,09,12,2014,,*56
$GPGGA,173228.000,4628.3159,N,01119.4646,E,1,06,2.0,258.7,M,47.6,M,,0000*56
$GPGLL,4628.3159,N,01119.4646,E,173228.000,A*37
$GPGSA,A,3,10,09,30,05,13,07,,,,,,,4.5,2.0,4.1*3F
$GPGSV,3,1,12,30,76,180,39,23,76,030,,10,61,167,45,07,61,059,49*7C
$GPGSV,3,2,12,13,53,287,28,05,50,299,31,09,34,086,49,04,10,206,*74
$GPGSV,3,3,12,02,10,324,,01,06,082,,28,06,168,36,24,00,188,*70
$GPRMC,173228.000,A,4628.3159,N,01119.4646,E,15.99,114.66,091214,,*3F
$GPVTG,114.66,T,,M,15.99,N,29.6,K*6D
$GPZDA,173229.000,09,12,2014,,*57
$GPGGA,173229.000,4628.3143,N,01119.4697,E,1,06,2.0,258.7,M,47.6,M,,0000*50
$GPGLL,4628.3143,N,01119.4697,E,173229.000,A*31
$GPGSA,A,3,10,09,30,05,13,07,,,,,,,4.5,2.0,4.1*3F
$GPGSV,3,1,12,30,76,180,39,23,76,030,,10,61,167,45,07,61,059,49*7C
$GPGSV,3,2,12,13,53,287,29,05,50,299,31,09,34,086,49,04,10,206,*75
$GPGSV,3,3,12,02,10,324,,01,06,082,,28,06,168,42,24,00,188,*73
$GPRMC,173229.000,A,4628.3143,N,01119.4697,E,12.71,115.99,091214,,*39
$GPVTG,115.99,T,,M,12.71,N,23.5,K*64
$GPZDA,173230.000,09,12,2014,,*5F
$GPGGA,173230.000,4628.3131,N,01119.4734,E,1,06,2.0,258.4,M,47.6,M,,0000*56
$GPGLL,4628.3131,N,01119.4734,E,173230.000,A*34
$GPGSA,A,3,10,09,30,05,13,07,,,,,,,4.5,2.0,4.1*3F
$GPGSV,3,1,12,30,76,180,39,23,76,030,,10,61,167,45,07,61,059,49*7C
$GPGSV,3,2,12,13,53,287,29,05,50,299,31,09,34,086,49,04,10,206,*75
$GPGSV,3,3,12,02,10,324,,01,06,082,,28,06,168,42,24,00,188,*73
$GPRMC,173230.000,A,4628.3131,N,01119.4734,E,8.91,115.16,091214,,*0E
$GPVTG,115.16,T,,M,8.91,N,16.5,K*50
$GPZDA,173231.000,09,12,2014,,*5E
$GPGGA,173231.000,4628.3122,N,01119.4764,E,1,06,2.0,259.4,M,47.6,M,,0000*51
$GPGLL,4628.3122,N,01119.4764,E,173231.000,A*32
$GPGSA,A,3,10,09,30,05,13,07,,,,,,,4.5,2.0,4.1*3F
$GPGSV,3,1,12,30,76,180,39,23,76,030,,10,61,167,45,07,61,059,49*7C
$GPGSV,3,2,12,13,53,287,30,05,50,299,32,09,34,086,41,04,10,206,*76
$GPGSV,3,3,12,02,10,324,,01,06,082,,28,06,168,43,24,00,188,*72
$GPRMC,173231.000,A,4628.3122,N,01119.4764,E,6.08,114.82,091214,,*0A
$GPVTG,114.82,T,,M,6.08,N,11.3,K*53
